[{"int_id": 1858, "ref_id": "804101", "name": "Tabor", "geometry": {"type": "Point", "coordinates": [14.4616745846504, 46.10834870673]}}, {"int_id": 1859, "ref_id": "804181", "name": "PR\u017dAN", "geometry": {"type": "Point", "coordinates": [14.4587585391091, 46.088468380925]}}, {"int_id": 1860, "ref_id": "804172", "name": "Andreja Bitenca", "geometry": {"type": "Point", "coordinates": [14.4651100051609, 46.0859041528413]}}, {"int_id": 1861, "ref_id": "804171", "name": "Andreja Bitenca", "geometry": {"type": "Point", "coordinates": [14.4651328356827, 46.0853832906922]}}, {"int_id": 1862, "ref_id": "803121", "name": "Ple\u0161i\u010deva", "geometry": {"type": "Point", "coordinates": [14.4694274912936, 46.0815100577848]}}, {"int_id": 1863, "ref_id": "803122", "name": "Ple\u0161i\u010deva", "geometry": {"type": "Point", "coordinates": [14.4696368664751, 46.0818567495464]}}, {"int_id": 1864, "ref_id": "803111", "name": "\u010cebelarska", "geometry": {"type": "Point", "coordinates": [14.4717184718765, 46.0783920213723]}}, {"int_id": 1865, "ref_id": "803112", "name": "\u010cebelarska", "geometry": {"type": "Point", "coordinates": [14.4715954707461, 46.0789262533192]}}, {"int_id": 1866, "ref_id": "803101", "name": "Tr\u017enica Koseze", "geometry": {"type": "Point", "coordinates": [14.4758989929015, 46.073932320023]}}, {"int_id": 1867, "ref_id": "803102", "name": "Tr\u017enica Koseze", "geometry": {"type": "Point", "coordinates": [14.4758692630004, 46.0743592966343]}}, {"int_id": 1868, "ref_id": "803091", "name": "Zgornja \u0160i\u0161ka", "geometry": {"type": "Point", "coordinates": [14.4804184082228, 46.0699732179614]}}, {"int_id": 1869, "ref_id": "803092", "name": "Zgornja \u0160i\u0161ka", "geometry": {"type": "Point", "coordinates": [14.4784491185266, 46.0711072255671]}}, {"int_id": 1870, "ref_id": "802041", "name": "Bolnica P. Dr\u017eaja", "geometry": {"type": "Point", "coordinates": [14.4857786602125, 46.0675141042531]}}, {"int_id": 1871, "ref_id": "802042", "name": "Bolnica P. Dr\u017eaja", "geometry": {"type": "Point", "coordinates": [14.485504304584, 46.0679190680763]}}, {"int_id": 1872, "ref_id": "802031", "name": "Na jami", "geometry": {"type": "Point", "coordinates": [14.4901457775681, 46.0666307062578]}}, {"int_id": 1873, "ref_id": "802032", "name": "Na jami", "geometry": {"type": "Point", "coordinates": [14.4897452389028, 46.0666625666718]}}, {"int_id": 1874, "ref_id": "101031", "name": "Be\u017eigrad", "geometry": {"type": "Point", "coordinates": [14.5117702100289, 46.0637341978335]}}, {"int_id": 1875, "ref_id": "101032", "name": "Be\u017eigrad", "geometry": {"type": "Point", "coordinates": [14.5101806614003, 46.063337242755]}}, {"int_id": 1876, "ref_id": "202021", "name": "Prekmurska", "geometry": {"type": "Point", "coordinates": [14.5158912218391, 46.0645765757045]}}, {"int_id": 1877, "ref_id": "202022", "name": "Prekmurska", "geometry": {"type": "Point", "coordinates": [14.5165665689864, 46.0645865836567]}}, {"int_id": 1878, "ref_id": "202031", "name": "Savske stolpnice", "geometry": {"type": "Point", "coordinates": [14.5217855318437, 46.065797444571]}}, {"int_id": 1879, "ref_id": "202032", "name": "Savske stolpnice", "geometry": {"type": "Point", "coordinates": [14.5230283655615, 46.065866186599]}}, {"int_id": 1880, "ref_id": "203181", "name": "Bratislavska", "geometry": {"type": "Point", "coordinates": [14.5515032876908, 46.0661748219224]}}, {"int_id": 1881, "ref_id": "203182", "name": "Bratislavska", "geometry": {"type": "Point", "coordinates": [14.5510579735067, 46.065833148618]}}, {"int_id": 1882, "ref_id": "204011", "name": "Lesko\u0161kova", "geometry": {"type": "Point", "coordinates": [14.558657, 46.06205]}}, {"int_id": 1883, "ref_id": "204012", "name": "Lesko\u0161kova", "geometry": {"type": "Point", "coordinates": [14.558216, 46.061921]}}, {"int_id": 1884, "ref_id": "204021", "name": "Gzl", "geometry": {"type": "Point", "coordinates": [14.563411, 46.062134]}}, {"int_id": 1885, "ref_id": "204022", "name": "Gzl", "geometry": {"type": "Point", "coordinates": [14.564377, 46.061968]}}, {"int_id": 1886, "ref_id": "204031", "name": "Rog", "geometry": {"type": "Point", "coordinates": [14.566488, 46.062149]}}, {"int_id": 1887, "ref_id": "204032", "name": "Rog", "geometry": {"type": "Point", "coordinates": [14.567524, 46.062026]}}, {"int_id": 1888, "ref_id": "204041", "name": "Letali\u0161ka", "geometry": {"type": "Point", "coordinates": [14.5701118255108, 46.0622142671473]}}, {"int_id": 1889, "ref_id": "204042", "name": "Letali\u0161ka", "geometry": {"type": "Point", "coordinates": [14.571226, 46.062066]}}, {"int_id": 1890, "ref_id": "204051", "name": "LETALI\u0160KA", "geometry": {"type": "Point", "coordinates": [14.5732202133182, 46.0621538094006]}}, {"int_id": 1891, "ref_id": "804121", "name": "BROD", "geometry": {"type": "Point", "coordinates": [14.4626231405824, 46.1154465205652]}}, {"int_id": 1892, "ref_id": "804131", "name": "Martinova", "geometry": {"type": "Point", "coordinates": [14.4643239927149, 46.1135152493032]}}, {"int_id": 1893, "ref_id": "804111", "name": "Ob daljnovodu", "geometry": {"type": "Point", "coordinates": [14.4617334498747, 46.1130392139322]}}, {"int_id": 1894, "ref_id": "804112", "name": "Ob daljnovodu", "geometry": {"type": "Point", "coordinates": [14.4618801835576, 46.1124946205681]}}, {"int_id": 1895, "ref_id": "804102", "name": "Tabor", "geometry": {"type": "Point", "coordinates": [14.4618896053543, 46.1091628228159]}}, {"int_id": 1896, "ref_id": "804091", "name": "Na klancu", "geometry": {"type": "Point", "coordinates": [14.4627572687125, 46.10421603877]}}, {"int_id": 1897, "ref_id": "804092", "name": "Na klancu", "geometry": {"type": "Point", "coordinates": [14.4628096087491, 46.1038913431465]}}, {"int_id": 1898, "ref_id": "804081", "name": "Kosma\u010deva", "geometry": {"type": "Point", "coordinates": [14.4607964902229, 46.1009023530574]}}, {"int_id": 1899, "ref_id": "804082", "name": "Kosma\u010deva", "geometry": {"type": "Point", "coordinates": [14.4610139536294, 46.1008640530497]}}, {"int_id": 1900, "ref_id": "804161", "name": "Imp", "geometry": {"type": "Point", "coordinates": [14.4770886855179, 46.0890354971728]}}, {"int_id": 1901, "ref_id": "804162", "name": "Imp", "geometry": {"type": "Point", "coordinates": [14.4773244519037, 46.0893348633412]}}, {"int_id": 1902, "ref_id": "803071", "name": "Tehnounion", "geometry": {"type": "Point", "coordinates": [14.4803785080757, 46.0858335781574]}}, {"int_id": 1903, "ref_id": "803072", "name": "Tehnounion", "geometry": {"type": "Point", "coordinates": [14.4796957407311, 46.0870563684513]}}, {"int_id": 1904, "ref_id": "803061", "name": "Ljubljanske brigade", "geometry": {"type": "Point", "coordinates": [14.4866913944941, 46.0797538084623]}}, {"int_id": 1905, "ref_id": "803062", "name": "Ljubljanske brigade", "geometry": {"type": "Point", "coordinates": [14.4852617844443, 46.0816800238783]}}, {"int_id": 1906, "ref_id": "803051", "name": "Litostrojska", "geometry": {"type": "Point", "coordinates": [14.4884700644529, 46.0767783216972]}}, {"int_id": 1907, "ref_id": "803052", "name": "Litostrojska", "geometry": {"type": "Point", "coordinates": [14.4889747268173, 46.0767540512211]}}, {"int_id": 1908, "ref_id": "104033", "name": "JE\u017dICA", "geometry": {"type": "Point", "coordinates": [14.5162963269339, 46.0974609029863]}}, {"int_id": 1909, "ref_id": "602121", "name": "TRNOVO", "geometry": {"type": "Point", "coordinates": [14.509281380943, 46.0409531476367]}}, {"int_id": 1910, "ref_id": "603082", "name": "Veliki \u0161tradon", "geometry": {"type": "Point", "coordinates": [14.5055322633425, 46.0378636579932]}}, {"int_id": 1911, "ref_id": "603081", "name": "Veliki \u0161tradon", "geometry": {"type": "Point", "coordinates": [14.5047099987106, 46.0374530185592]}}, {"int_id": 1912, "ref_id": "603072", "name": "Pot na Rakovo jel\u0161o", "geometry": {"type": "Point", "coordinates": [14.5019511368623, 46.0334289421751]}}, {"int_id": 1913, "ref_id": "603071", "name": "Pot na Rakovo jel\u0161o", "geometry": {"type": "Point", "coordinates": [14.5014376009105, 46.0328981940404]}}, {"int_id": 1914, "ref_id": "603062", "name": "Murgle", "geometry": {"type": "Point", "coordinates": [14.4997611723307, 46.0372877455475]}}, {"int_id": 1915, "ref_id": "603061", "name": "Murgle", "geometry": {"type": "Point", "coordinates": [14.4999838811257, 46.0384535917753]}}, {"int_id": 1916, "ref_id": "602092", "name": "Ziherlova", "geometry": {"type": "Point", "coordinates": [14.4996355985021, 46.0405037688203]}}, {"int_id": 1917, "ref_id": "602093", "name": "Ziherlova", "geometry": {"type": "Point", "coordinates": [14.5001231726554, 46.0418212314252]}}, {"int_id": 1918, "ref_id": "602082", "name": "Kolezija", "geometry": {"type": "Point", "coordinates": [14.498420053891, 46.0423986411265]}}, {"int_id": 1919, "ref_id": "804051", "name": "VI\u017dMARJE", "geometry": {"type": "Point", "coordinates": [14.4580792268338, 46.1002405905451]}}, {"int_id": 1920, "ref_id": "804041", "name": "\u0160entvid", "geometry": {"type": "Point", "coordinates": [14.4663668666688, 46.095469885169]}}, {"int_id": 1921, "ref_id": "804042", "name": "\u0160entvid", "geometry": {"type": "Point", "coordinates": [14.4653547563056, 46.0966915278023]}}, {"int_id": 1922, "ref_id": "804031", "name": "Podgora", "geometry": {"type": "Point", "coordinates": [14.4692993577114, 46.0925702680057]}}, {"int_id": 1923, "ref_id": "804032", "name": "Podgora", "geometry": {"type": "Point", "coordinates": [14.4691406660577, 46.0935450967278]}}, {"int_id": 1924, "ref_id": "804021", "name": "Pru\u0161nikova", "geometry": {"type": "Point", "coordinates": [14.4716311635353, 46.089910023321]}}, {"int_id": 1925, "ref_id": "804022", "name": "Pru\u0161nikova", "geometry": {"type": "Point", "coordinates": [14.4713579672898, 46.0907175876449]}}, {"int_id": 1926, "ref_id": "804011", "name": "Trata", "geometry": {"type": "Point", "coordinates": [14.4740952834977, 46.0870811635291]}}, {"int_id": 1927, "ref_id": "804012", "name": "Trata", "geometry": {"type": "Point", "coordinates": [14.4746134585934, 46.0871662820164]}}, {"int_id": 1928, "ref_id": "803042", "name": "Dravlje", "geometry": {"type": "Point", "coordinates": [14.4783480068958, 46.0835599023968]}}, {"int_id": 1929, "ref_id": "803041", "name": "Dravlje", "geometry": {"type": "Point", "coordinates": [14.4776295445231, 46.0835784412999]}}, {"int_id": 1930, "ref_id": "803031", "name": "Kompas", "geometry": {"type": "Point", "coordinates": [14.4802981654157, 46.0797182553747]}}, {"int_id": 1931, "ref_id": "803032", "name": "Kompas", "geometry": {"type": "Point", "coordinates": [14.4807016995688, 46.0798333635307]}}, {"int_id": 1932, "ref_id": "803021", "name": "Avtomonta\u017ea", "geometry": {"type": "Point", "coordinates": [14.4822732496708, 46.0769346799793]}}, {"int_id": 1933, "ref_id": "803022", "name": "Avtomonta\u017ea", "geometry": {"type": "Point", "coordinates": [14.4824498264085, 46.0773180697392]}}, {"int_id": 1934, "ref_id": "803011", "name": "Slovenija avto", "geometry": {"type": "Point", "coordinates": [14.4863817754814, 46.0729871704143]}}, {"int_id": 1935, "ref_id": "803014", "name": "Remiza", "geometry": {"type": "Point", "coordinates": [14.4855071825561, 46.0743539437374]}}, {"int_id": 1936, "ref_id": "802021", "name": "Kino \u0160i\u0161ka", "geometry": {"type": "Point", "coordinates": [14.489376, 46.069726]}}, {"int_id": 1937, "ref_id": "802022", "name": "Kino \u0160i\u0161ka", "geometry": {"type": "Point", "coordinates": [14.49028, 46.069271]}}, {"int_id": 1938, "ref_id": "802011", "name": "Stara cerkev", "geometry": {"type": "Point", "coordinates": [14.4943382197834, 46.0640674962697]}}, {"int_id": 1939, "ref_id": "802012", "name": "Stara cerkev", "geometry": {"type": "Point", "coordinates": [14.4942089544609, 46.0650025718064]}}, {"int_id": 1940, "ref_id": "801011", "name": "Tivoli", "geometry": {"type": "Point", "coordinates": [14.4973438354549, 46.0603002787038]}}, {"int_id": 1941, "ref_id": "801012", "name": "Tivoli", "geometry": {"type": "Point", "coordinates": [14.4979610166072, 46.0600747882683]}}, {"int_id": 1942, "ref_id": "700011", "name": "Gosposvetska", "geometry": {"type": "Point", "coordinates": [14.50390213335, 46.0547112836872]}}, {"int_id": 1943, "ref_id": "700012", "name": "Gosposvetska", "geometry": {"type": "Point", "coordinates": [14.5019390996907, 46.0563512087656]}}, {"int_id": 1944, "ref_id": "601012", "name": "Konzorcij", "geometry": {"type": "Point", "coordinates": [14.5028208626036, 46.0512362310992]}}, {"int_id": 1945, "ref_id": "601011", "name": "Po\u0161ta", "geometry": {"type": "Point", "coordinates": [14.5035070930001, 46.052064807962]}}, {"int_id": 1946, "ref_id": "602022", "name": "Drama", "geometry": {"type": "Point", "coordinates": [14.5017333205319, 46.0488142650673]}}, {"int_id": 1947, "ref_id": "602021", "name": "Drama", "geometry": {"type": "Point", "coordinates": [14.5023260218633, 46.0489598659593]}}, {"int_id": 1948, "ref_id": "602052", "name": "A\u0161ker\u010deva", "geometry": {"type": "Point", "coordinates": [14.4993791192346, 46.0466733978688]}}, {"int_id": 1949, "ref_id": "602051", "name": "A\u0161ker\u010deva", "geometry": {"type": "Point", "coordinates": [14.498692577197, 46.0466149021947]}}, {"int_id": 1950, "ref_id": "602042", "name": "Toba\u010dna", "geometry": {"type": "Point", "coordinates": [14.4935786010422, 46.0470755662802]}}, {"int_id": 1951, "ref_id": "602041", "name": "Toba\u010dna", "geometry": {"type": "Point", "coordinates": [14.4944646192484, 46.0469033031607]}}, {"int_id": 1952, "ref_id": "602032", "name": "Hajdrihova", "geometry": {"type": "Point", "coordinates": [14.489879993166, 46.0458430605145]}}, {"int_id": 1953, "ref_id": "602031", "name": "Hajdrihova", "geometry": {"type": "Point", "coordinates": [14.4904055379179, 46.045525262675]}}, {"int_id": 1954, "ref_id": "603012", "name": "Jadranska", "geometry": {"type": "Point", "coordinates": [14.4892784678837, 46.0422488747526]}}, {"int_id": 1955, "ref_id": "603011", "name": "Jadranska", "geometry": {"type": "Point", "coordinates": [14.4886758245036, 46.0437795777789]}}, {"int_id": 1956, "ref_id": "603022", "name": "Gerbi\u010deva", "geometry": {"type": "Point", "coordinates": [14.4898329587134, 46.0403670659872]}}, {"int_id": 1957, "ref_id": "603021", "name": "Gerbi\u010deva", "geometry": {"type": "Point", "coordinates": [14.4900057577242, 46.0407648558072]}}, {"int_id": 1958, "ref_id": "603032", "name": "Krimska", "geometry": {"type": "Point", "coordinates": [14.4892577226481, 46.0366909125103]}}, {"int_id": 1959, "ref_id": "603031", "name": "Krimska", "geometry": {"type": "Point", "coordinates": [14.4897181962958, 46.0365812948747]}}, {"int_id": 1960, "ref_id": "603042", "name": "Koprska", "geometry": {"type": "Point", "coordinates": [14.4839099801713, 46.0358530384376]}}, {"int_id": 1961, "ref_id": "603041", "name": "Koprska", "geometry": {"type": "Point", "coordinates": [14.4845342445523, 46.0353959724272]}}, {"int_id": 1962, "ref_id": "603051", "name": "MESTNI LOG", "geometry": {"type": "Point", "coordinates": [14.4829498976987, 46.0378948392426]}}, {"int_id": 1963, "ref_id": "202051", "name": "ZELENA JAMA", "geometry": {"type": "Point", "coordinates": [14.529347, 46.063581]}}, {"int_id": 1964, "ref_id": "203011", "name": "Pokopali\u0161ka", "geometry": {"type": "Point", "coordinates": [14.5292756102799, 46.065626401728]}}, {"int_id": 1965, "ref_id": "203012", "name": "Pokopali\u0161ka", "geometry": {"type": "Point", "coordinates": [14.5290011802691, 46.0656090130998]}}, {"int_id": 1966, "ref_id": "202061", "name": "\u017dale", "geometry": {"type": "Point", "coordinates": [14.5272767513117, 46.0669620118359]}}, {"int_id": 1967, "ref_id": "202062", "name": "\u017dale", "geometry": {"type": "Point", "coordinates": [14.5276637870277, 46.066898944631]}}, {"int_id": 1968, "ref_id": "202041", "name": "Savsko naselje", "geometry": {"type": "Point", "coordinates": [14.5243578154065, 46.0626691785687]}}, {"int_id": 1969, "ref_id": "202042", "name": "Savsko naselje", "geometry": {"type": "Point", "coordinates": [14.524853932852, 46.0627649957494]}}, {"int_id": 1970, "ref_id": "202011", "name": "Viadukt", "geometry": {"type": "Point", "coordinates": [14.52062, 46.05941]}}, {"int_id": 1971, "ref_id": "202012", "name": "Viadukt", "geometry": {"type": "Point", "coordinates": [14.5211296660527, 46.059471046818]}}, {"int_id": 1972, "ref_id": "301011", "name": "Fri\u0161kovec", "geometry": {"type": "Point", "coordinates": [14.5183160715773, 46.057442524105]}}, {"int_id": 1973, "ref_id": "301012", "name": "Fri\u0161kovec", "geometry": {"type": "Point", "coordinates": [14.5167482582541, 46.0574878665168]}}, {"int_id": 1974, "ref_id": "300011", "name": "Kolodvor", "geometry": {"type": "Point", "coordinates": [14.5094296324936, 46.0577343087827]}}, {"int_id": 1975, "ref_id": "300012", "name": "Kolodvor", "geometry": {"type": "Point", "coordinates": [14.5109627482171, 46.0574747093719]}}, {"int_id": 1976, "ref_id": "600012", "name": "Bavarski dvor", "geometry": {"type": "Point", "coordinates": [14.5050199230064, 46.0556881342506]}}, {"int_id": 1977, "ref_id": "600011", "name": "Bavarski dvor", "geometry": {"type": "Point", "coordinates": [14.5054520821467, 46.0557499451466]}}, {"int_id": 1978, "ref_id": "605012", "name": "Ig AP", "geometry": {"type": "Point", "coordinates": [14.5279644103495, 45.9588575700225]}}, {"int_id": 1983, "ref_id": "502011", "name": "Poljanska", "geometry": {"type": "Point", "coordinates": [14.5147725070593, 46.0505552898975]}}, {"int_id": 1984, "ref_id": "502012", "name": "Poljanska", "geometry": {"type": "Point", "coordinates": [14.5156647031503, 46.0500317413051]}}, {"int_id": 1985, "ref_id": "402031", "name": "Klini\u010dni center", "geometry": {"type": "Point", "coordinates": [14.5205554330943, 46.0524267760194]}}, {"int_id": 1986, "ref_id": "402032", "name": "Klini\u010dni center", "geometry": {"type": "Point", "coordinates": [14.5209650400139, 46.0523047836622]}}, {"int_id": 1987, "ref_id": "402041", "name": "Bolnica", "geometry": {"type": "Point", "coordinates": [14.5282085175713, 46.0543085654282]}}, {"int_id": 1988, "ref_id": "402042", "name": "Bolnica", "geometry": {"type": "Point", "coordinates": [14.5289485995372, 46.0542549933401]}}, {"int_id": 1989, "ref_id": "303011", "name": "Tr\u017enica Moste", "geometry": {"type": "Point", "coordinates": [14.5344568660752, 46.0558777600207]}}, {"int_id": 1990, "ref_id": "303012", "name": "Tr\u017enica Moste", "geometry": {"type": "Point", "coordinates": [14.5339650999744, 46.0554975381072]}}, {"int_id": 1991, "ref_id": "303021", "name": "Zalo\u0161ka", "geometry": {"type": "Point", "coordinates": [14.5395127552736, 46.0561411194173]}}, {"int_id": 1992, "ref_id": "303022", "name": "Kajuhova", "geometry": {"type": "Point", "coordinates": [14.5406648756758, 46.0567921339455]}}, {"int_id": 1993, "ref_id": "203062", "name": "Tovorni kolodvor", "geometry": {"type": "Point", "coordinates": [14.5394172706079, 46.060729764712]}}, {"int_id": 1994, "ref_id": "203061", "name": "Tovorni kolodvor", "geometry": {"type": "Point", "coordinates": [14.5391211009896, 46.0614408098368]}}, {"int_id": 1995, "ref_id": "203052", "name": "Kav\u010di\u010deva", "geometry": {"type": "Point", "coordinates": [14.5364808386361, 46.0639666638168]}}, {"int_id": 1996, "ref_id": "203051", "name": "Kav\u010di\u010deva", "geometry": {"type": "Point", "coordinates": [14.535905113622, 46.0640695390938]}}, {"int_id": 1997, "ref_id": "203022", "name": "Ro\u017ei\u010deva", "geometry": {"type": "Point", "coordinates": [14.5320453199363, 46.0633347305643]}}, {"int_id": 1998, "ref_id": "203021", "name": "Ro\u017ei\u010deva", "geometry": {"type": "Point", "coordinates": [14.5317005640753, 46.0633447391051]}}, {"int_id": 1999, "ref_id": "203041", "name": "\u0160ola Jar\u0161e", "geometry": {"type": "Point", "coordinates": [14.533173796629, 46.0667535149744]}}, {"int_id": 2000, "ref_id": "203042", "name": "\u0160ola Jar\u0161e", "geometry": {"type": "Point", "coordinates": [14.5345499734436, 46.0671498839754]}}, {"int_id": 2001, "ref_id": "203091", "name": "Jar\u0161e", "geometry": {"type": "Point", "coordinates": [14.5366875508196, 46.0684510441875]}}, {"int_id": 2002, "ref_id": "203092", "name": "Jar\u0161e", "geometry": {"type": "Point", "coordinates": [14.5387445215647, 46.0687318055859]}}, {"int_id": 2003, "ref_id": "203101", "name": "Kodrova", "geometry": {"type": "Point", "coordinates": [14.5399354977784, 46.0692253015597]}}, {"int_id": 2004, "ref_id": "203102", "name": "Kodrova", "geometry": {"type": "Point", "coordinates": [14.5414942639509, 46.0691507508133]}}, {"int_id": 2005, "ref_id": "203151", "name": "\u017dito", "geometry": {"type": "Point", "coordinates": [14.5452580430306, 46.0699275349816]}}, {"int_id": 2006, "ref_id": "203152", "name": "\u017dito", "geometry": {"type": "Point", "coordinates": [14.5467393442049, 46.0698226895654]}}, {"int_id": 2007, "ref_id": "0", "name": "Nove Jar\u0161e", "geometry": {"type": "Point", "coordinates": [14.5485729761228, 46.0703728882305]}}, {"int_id": 2008, "ref_id": "203171", "name": "NOVE JAR\u0160E", "geometry": {"type": "Point", "coordinates": [14.5512191149212, 46.0695989381466]}}, {"int_id": 2009, "ref_id": "103202", "name": "LITOSTROJ", "geometry": {"type": "Point", "coordinates": [14.4966689597733, 46.0820482515233]}}, {"int_id": 2011, "ref_id": "803012", "name": "Slovenija avto", "geometry": {"type": "Point", "coordinates": [14.4865567638802, 46.0738537171375]}}, {"int_id": 2012, "ref_id": "602061", "name": "Kri\u017eanke", "geometry": {"type": "Point", "coordinates": [14.5016451401323, 46.0462959189535]}}, {"int_id": 2013, "ref_id": "602062", "name": "Kri\u017eanke", "geometry": {"type": "Point", "coordinates": [14.5021824108121, 46.0459610063461]}}, {"int_id": 2014, "ref_id": "602101", "name": "Gornji trg", "geometry": {"type": "Point", "coordinates": [14.5063616966418, 46.0459373831064]}}, {"int_id": 2015, "ref_id": "602102", "name": "Gornji trg", "geometry": {"type": "Point", "coordinates": [14.5064869358443, 46.0457408698752]}}, {"int_id": 2016, "ref_id": "602111", "name": "Privoz", "geometry": {"type": "Point", "coordinates": [14.5113775201499, 46.0440087305618]}}, {"int_id": 2017, "ref_id": "602112", "name": "Privoz", "geometry": {"type": "Point", "coordinates": [14.5116395329957, 46.0436871390557]}}, {"int_id": 2018, "ref_id": "503011", "name": "Streli\u0161\u010de", "geometry": {"type": "Point", "coordinates": [14.5171085645323, 46.0393406347181]}}, {"int_id": 2019, "ref_id": "503012", "name": "Streli\u0161\u010de", "geometry": {"type": "Point", "coordinates": [14.5176450608338, 46.0386440849511]}}, {"int_id": 2020, "ref_id": "503021", "name": "Rakovnik", "geometry": {"type": "Point", "coordinates": [14.5229852606273, 46.03622560865]}}, {"int_id": 2021, "ref_id": "503022", "name": "Rakovnik", "geometry": {"type": "Point", "coordinates": [14.5237769348064, 46.0356131885114]}}, {"int_id": 2022, "ref_id": "503031", "name": "Akademija", "geometry": {"type": "Point", "coordinates": [14.52924188551, 46.0321902788228]}}, {"int_id": 2023, "ref_id": "503032", "name": "Akademija", "geometry": {"type": "Point", "coordinates": [14.5290982905482, 46.0320795364951]}}, {"int_id": 2024, "ref_id": "503041", "name": "Peruzzijeva", "geometry": {"type": "Point", "coordinates": [14.532655721019, 46.0299221276014]}}, {"int_id": 2025, "ref_id": "503042", "name": "Peruzzijeva", "geometry": {"type": "Point", "coordinates": [14.5317593452538, 46.0302659686408]}}, {"int_id": 2026, "ref_id": "504011", "name": "Gornji Rudnik", "geometry": {"type": "Point", "coordinates": [14.5354591916259, 46.0283415248652]}}, {"int_id": 2027, "ref_id": "504012", "name": "Gornji Rudnik", "geometry": {"type": "Point", "coordinates": [14.5355323015909, 46.0280429889558]}}, {"int_id": 2028, "ref_id": "504021", "name": "Spodnji Rudnik", "geometry": {"type": "Point", "coordinates": [14.5401874811351, 46.0236765791319]}}, {"int_id": 2029, "ref_id": "504022", "name": "Spodnji Rudnik", "geometry": {"type": "Point", "coordinates": [14.5404867282094, 46.022754200005]}}, {"int_id": 2030, "ref_id": "504031", "name": "RUDNIK", "geometry": {"type": "Point", "coordinates": [14.5438013202765, 46.0177844342114]}}, {"int_id": 2031, "ref_id": "804221", "name": "PODUTIK", "geometry": {"type": "Point", "coordinates": [14.4437468732627, 46.074700607212]}}, {"int_id": 2032, "ref_id": "804212", "name": "Murkova", "geometry": {"type": "Point", "coordinates": [14.4489268845816, 46.0741641610318]}}, {"int_id": 2033, "ref_id": "804211", "name": "Murkova", "geometry": {"type": "Point", "coordinates": [14.4500348271652, 46.0735555583435]}}, {"int_id": 2034, "ref_id": "804202", "name": "Omersova", "geometry": {"type": "Point", "coordinates": [14.45286424872, 46.0741445860599]}}, {"int_id": 2035, "ref_id": "804201", "name": "Omersova", "geometry": {"type": "Point", "coordinates": [14.454199290376, 46.0740682324078]}}, {"int_id": 2036, "ref_id": "803152", "name": "Draveljska gmajna", "geometry": {"type": "Point", "coordinates": [14.4614593041291, 46.0739502116334]}}, {"int_id": 2037, "ref_id": "803151", "name": "Draveljska gmajna", "geometry": {"type": "Point", "coordinates": [14.461609180508, 46.0737654431551]}}, {"int_id": 2038, "ref_id": "803142", "name": "Koseze", "geometry": {"type": "Point", "coordinates": [14.4676912359921, 46.0721727685109]}}, {"int_id": 2039, "ref_id": "803141", "name": "Koseze", "geometry": {"type": "Point", "coordinates": [14.4673609645689, 46.072124031422]}}, {"int_id": 2040, "ref_id": "803132", "name": "Bratov U\u010dakar", "geometry": {"type": "Point", "coordinates": [14.4733813920661, 46.0697392773975]}}, {"int_id": 2041, "ref_id": "803131", "name": "Bratov U\u010dakar", "geometry": {"type": "Point", "coordinates": [14.4727939732586, 46.0698730895148]}}, {"int_id": 2042, "ref_id": "803082", "name": "Kneza Koclja", "geometry": {"type": "Point", "coordinates": [14.4809774479051, 46.0717449040447]}}, {"int_id": 2043, "ref_id": "803081", "name": "Kneza Koclja", "geometry": {"type": "Point", "coordinates": [14.4809568373857, 46.0714477548823]}}, {"int_id": 2044, "ref_id": "803016", "name": "\u0160i\u0161enska", "geometry": {"type": "Point", "coordinates": [14.4850548474213, 46.0737811474814]}}, {"int_id": 2045, "ref_id": "500011", "name": "Tav\u010darjeva", "geometry": {"type": "Point", "coordinates": [14.5063137855025, 46.0547360452192]}}, {"int_id": 2046, "ref_id": "500012", "name": "Turist", "geometry": {"type": "Point", "coordinates": [14.5074699497496, 46.0535979234662]}}, {"int_id": 2047, "ref_id": "501011", "name": "Ilirska", "geometry": {"type": "Point", "coordinates": [14.5137765606089, 46.0530533396928]}}, {"int_id": 2048, "ref_id": "501012", "name": "Ilirska", "geometry": {"type": "Point", "coordinates": [14.5141083545737, 46.0528795585258]}}, {"int_id": 2049, "ref_id": "402011", "name": "Hrvatski trg", "geometry": {"type": "Point", "coordinates": [14.5168527242346, 46.0524970098127]}}, {"int_id": 2050, "ref_id": "402012", "name": "Hrvatski trg", "geometry": {"type": "Point", "coordinates": [14.5178402366579, 46.0521860232111]}}, {"int_id": 2053, "ref_id": "402061", "name": "Gornje Poljane", "geometry": {"type": "Point", "coordinates": [14.5223698735479, 46.0489022481686]}}, {"int_id": 2054, "ref_id": "402062", "name": "Gornje Poljane", "geometry": {"type": "Point", "coordinates": [14.5245678375734, 46.0487326038029]}}, {"int_id": 2055, "ref_id": "402051", "name": "Glonarjeva", "geometry": {"type": "Point", "coordinates": [14.5264661162759, 46.0502893202748]}}, {"int_id": 2056, "ref_id": "402052", "name": "Glonarjeva", "geometry": {"type": "Point", "coordinates": [14.5270949974698, 46.0505565109467]}}, {"int_id": 2057, "ref_id": "403011", "name": "Jana Husa", "geometry": {"type": "Point", "coordinates": [14.5329079230999, 46.0532800749137]}}, {"int_id": 2058, "ref_id": "403012", "name": "Jana Husa", "geometry": {"type": "Point", "coordinates": [14.5339355788506, 46.0534490553296]}}, {"int_id": 2059, "ref_id": "403023", "name": "Kodeljevo", "geometry": {"type": "Point", "coordinates": [14.5395596910308, 46.051574636556]}}, {"int_id": 2060, "ref_id": "403022", "name": "Kodeljevo", "geometry": {"type": "Point", "coordinates": [14.5391041111301, 46.0512200388844]}}, {"int_id": 2061, "ref_id": "403043", "name": "\u0160tepanja vas", "geometry": {"type": "Point", "coordinates": [14.5385547626929, 46.048686027518]}}, {"int_id": 2062, "ref_id": "403042", "name": "\u0160tepanja vas", "geometry": {"type": "Point", "coordinates": [14.539141192577, 46.0479287229107]}}, {"int_id": 2063, "ref_id": "403051", "name": "Emona", "geometry": {"type": "Point", "coordinates": [14.5448415145015, 46.0477987299173]}}, {"int_id": 2064, "ref_id": "403052", "name": "Emona", "geometry": {"type": "Point", "coordinates": [14.5454590738668, 46.0474984725596]}}, {"int_id": 2065, "ref_id": "303041", "name": "\u0160TEPANJSKO NASELJE", "geometry": {"type": "Point", "coordinates": [14.5478810412379, 46.0538135256933]}}, {"int_id": 2066, "ref_id": "104161", "name": "\u010cRNU\u010cE", "geometry": {"type": "Point", "coordinates": [14.536491951893, 46.1043078257781]}}, {"int_id": 2067, "ref_id": "104111", "name": "Rogovilc", "geometry": {"type": "Point", "coordinates": [14.52968, 46.10225]}}, {"int_id": 2068, "ref_id": "104112", "name": "Rogovilc", "geometry": {"type": "Point", "coordinates": [14.53145, 46.10266]}}, {"int_id": 2069, "ref_id": "104101", "name": "Kolodvor \u010crnu\u010de", "geometry": {"type": "Point", "coordinates": [14.526211461955, 46.1015457641637]}}, {"int_id": 2070, "ref_id": "104102", "name": "Kolodvor \u010crnu\u010de", "geometry": {"type": "Point", "coordinates": [14.5253262447597, 46.1012083782083]}}, {"int_id": 2071, "ref_id": "104051", "name": "Sava", "geometry": {"type": "Point", "coordinates": [14.5218039346614, 46.1009611640019]}}, {"int_id": 2072, "ref_id": "104052", "name": "Sava", "geometry": {"type": "Point", "coordinates": [14.5219852697672, 46.1008107901197]}}, {"int_id": 2073, "ref_id": "0", "name": "", "geometry": {"type": "Point", "coordinates": [0, 0]}}, {"int_id": 2075, "ref_id": "103131", "name": "Ruski car", "geometry": {"type": "Point", "coordinates": [14.51384, 46.09022]}}, {"int_id": 2076, "ref_id": "103132", "name": "Ruski car", "geometry": {"type": "Point", "coordinates": [14.51398, 46.09064]}}, {"int_id": 2077, "ref_id": "103101", "name": "Sto\u017eice", "geometry": {"type": "Point", "coordinates": [14.5138290303445, 46.0862351317798]}}, {"int_id": 2078, "ref_id": "103102", "name": "Sto\u017eice", "geometry": {"type": "Point", "coordinates": [14.5140151073556, 46.0860541515796]}}, {"int_id": 2079, "ref_id": "103071", "name": "Smelt", "geometry": {"type": "Point", "coordinates": [14.5130944086417, 46.0822915734937]}}, {"int_id": 2080, "ref_id": "103072", "name": "Smelt", "geometry": {"type": "Point", "coordinates": [14.5134640245604, 46.0822741463821]}}, {"int_id": 2081, "ref_id": "103031", "name": "Amzs", "geometry": {"type": "Point", "coordinates": [14.51192, 46.07782]}}, {"int_id": 2082, "ref_id": "103032", "name": "Amzs", "geometry": {"type": "Point", "coordinates": [14.51221, 46.07735]}}, {"int_id": 2083, "ref_id": "102081", "name": "Mercator", "geometry": {"type": "Point", "coordinates": [14.5111779382601, 46.0742667424902]}}, {"int_id": 2084, "ref_id": "102082", "name": "Mercator", "geometry": {"type": "Point", "coordinates": [14.5116842768961, 46.0747260644736]}}, {"int_id": 2085, "ref_id": "102041", "name": "Stadion", "geometry": {"type": "Point", "coordinates": [14.51023, 46.06938]}}, {"int_id": 2086, "ref_id": "102042", "name": "Stadion", "geometry": {"type": "Point", "coordinates": [14.51042, 46.06942]}}, {"int_id": 2087, "ref_id": "101051", "name": "Astra", "geometry": {"type": "Point", "coordinates": [14.5084860025511, 46.0647389188896]}}, {"int_id": 2088, "ref_id": "101052", "name": "Astra", "geometry": {"type": "Point", "coordinates": [14.5090730833369, 46.0648973517199]}}, {"int_id": 2089, "ref_id": "100022", "name": "Razstavi\u0161\u010de", "geometry": {"type": "Point", "coordinates": [14.5077089966774, 46.0610219292677]}}, {"int_id": 2090, "ref_id": "100021", "name": "Razstavi\u0161\u010de", "geometry": {"type": "Point", "coordinates": [14.5070188919119, 46.0607888162495]}}, {"int_id": 2091, "ref_id": "703072", "name": "Stan in dom", "geometry": {"type": "Point", "coordinates": [14.4865134291888, 46.0448634378802]}}, {"int_id": 2092, "ref_id": "703071", "name": "Stan in dom", "geometry": {"type": "Point", "coordinates": [14.4861148282617, 46.044401664897]}}, {"int_id": 2093, "ref_id": "703082", "name": "Glince", "geometry": {"type": "Point", "coordinates": [14.4814343274799, 46.0434445186122]}}, {"int_id": 2094, "ref_id": "703081", "name": "Glince", "geometry": {"type": "Point", "coordinates": [14.4821914599498, 46.0432357780323]}}, {"int_id": 2095, "ref_id": "703092", "name": "Vi\u010d", "geometry": {"type": "Point", "coordinates": [14.4773615599551, 46.0422099163163]}}, {"int_id": 2096, "ref_id": "703091", "name": "Vi\u010d", "geometry": {"type": "Point", "coordinates": [14.4780545673349, 46.0421398444185]}}, {"int_id": 2097, "ref_id": "703102", "name": "Bonifacija", "geometry": {"type": "Point", "coordinates": [14.473203180215, 46.0401675700556]}}, {"int_id": 2098, "ref_id": "703101", "name": "Bonifacija", "geometry": {"type": "Point", "coordinates": [14.4727181657083, 46.0397161487766]}}, {"int_id": 2099, "ref_id": "704011", "name": "DOLGI MOST P+R", "geometry": {"type": "Point", "coordinates": [14.4632149619944, 46.037391581951]}}, {"int_id": 2100, "ref_id": "404081", "name": "Kri\u017ei\u0161\u010de Sostro", "geometry": {"type": "Point", "coordinates": [14.608264279482, 46.0373128024334]}}, {"int_id": 2101, "ref_id": "602081", "name": "Kolezija", "geometry": {"type": "Point", "coordinates": [14.4987076518313, 46.0424772272974]}}, {"int_id": 2102, "ref_id": "602072", "name": "Mirje", "geometry": {"type": "Point", "coordinates": [14.500669119305, 46.0456223330086]}}, {"int_id": 2103, "ref_id": "602071", "name": "Mirje", "geometry": {"type": "Point", "coordinates": [14.5007129425827, 46.0446703595961]}}, {"int_id": 2104, "ref_id": "402022", "name": "Poliklinika", "geometry": {"type": "Point", "coordinates": [14.5190345536217, 46.0535822010773]}}, {"int_id": 2105, "ref_id": "402021", "name": "Poliklinika", "geometry": {"type": "Point", "coordinates": [14.5195247598878, 46.0538088922616]}}, {"int_id": 2106, "ref_id": "303032", "name": "Ob soto\u010dju", "geometry": {"type": "Point", "coordinates": [14.5398492793268, 46.0538213183786]}}, {"int_id": 2107, "ref_id": "403021", "name": "Kodeljevo", "geometry": {"type": "Point", "coordinates": [14.5391744150322, 46.0521922899648]}}, {"int_id": 2108, "ref_id": "303043", "name": "\u0160TEPANJSKO NASELJE", "geometry": {"type": "Point", "coordinates": [14.548200669132, 46.0535669144503]}}, {"int_id": 2109, "ref_id": "605011", "name": "Ig AP", "geometry": {"type": "Point", "coordinates": [14.5281530565591, 45.9586727463052]}}, {"int_id": 2111, "ref_id": "303024", "name": "Zalo\u0161ka", "geometry": {"type": "Point", "coordinates": [14.5419185875166, 46.0557930676559]}}, {"int_id": 2112, "ref_id": "303051", "name": "Pot na Fu\u017eine", "geometry": {"type": "Point", "coordinates": [14.5495750133502, 46.0562549828926]}}, {"int_id": 2113, "ref_id": "303071", "name": "Brodarjev trg", "geometry": {"type": "Point", "coordinates": [14.5530999343792, 46.0544323043463]}}, {"int_id": 2114, "ref_id": "303072", "name": "Brodarjev trg", "geometry": {"type": "Point", "coordinates": [14.5534459082234, 46.0542080945127]}}, {"int_id": 2115, "ref_id": "304011", "name": "Preglov trg", "geometry": {"type": "Point", "coordinates": [14.5588679432511, 46.0546966918945]}}, {"int_id": 2116, "ref_id": "304012", "name": "Preglov trg", "geometry": {"type": "Point", "coordinates": [14.5586838234352, 46.0545282823353]}}, {"int_id": 2117, "ref_id": "304031", "name": "Rusjanov trg", "geometry": {"type": "Point", "coordinates": [14.5635381579658, 46.0547213197494]}}, {"int_id": 2118, "ref_id": "304032", "name": "Rusjanov trg", "geometry": {"type": "Point", "coordinates": [14.56285010191, 46.0545252114319]}}, {"int_id": 2119, "ref_id": "304042", "name": "Chengdujska", "geometry": {"type": "Point", "coordinates": [14.5674585490773, 46.0548199178901]}}, {"int_id": 2120, "ref_id": "304061", "name": "Studenec", "geometry": {"type": "Point", "coordinates": [14.576019820884, 46.0547196858719]}}, {"int_id": 2121, "ref_id": "304062", "name": "Studenec", "geometry": {"type": "Point", "coordinates": [14.5761047898288, 46.0544873028857]}}, {"int_id": 2122, "ref_id": "304071", "name": "Polje", "geometry": {"type": "Point", "coordinates": [14.5825341543004, 46.0540736150412]}}, {"int_id": 2123, "ref_id": "304074", "name": "Polje", "geometry": {"type": "Point", "coordinates": [14.5836685964137, 46.0548817920223]}}, {"int_id": 2124, "ref_id": "304081", "name": "Polje-kolodvor", "geometry": {"type": "Point", "coordinates": [14.5834810774499, 46.0571865764195]}}, {"int_id": 2125, "ref_id": "304082", "name": "Polje-kolodvor", "geometry": {"type": "Point", "coordinates": [14.5837636256577, 46.0574802116673]}}, {"int_id": 2126, "ref_id": "204101", "name": "Novo Polje", "geometry": {"type": "Point", "coordinates": [14.5825996585414, 46.0652393467374]}}, {"int_id": 2127, "ref_id": "204102", "name": "Novo Polje", "geometry": {"type": "Point", "coordinates": [14.5830247871717, 46.0646594433519]}}, {"int_id": 2128, "ref_id": "204081", "name": "ZADOBROVA", "geometry": {"type": "Point", "coordinates": [14.57993, 46.071015]}}, {"int_id": 2129, "ref_id": "273", "name": "", "geometry": {"type": "Point", "coordinates": [14.5130453909083, 46.0630976813365]}}, {"int_id": 2130, "ref_id": "303052", "name": "Pot na Fu\u017eine", "geometry": {"type": "Point", "coordinates": [14.5511274159203, 46.0559793120522]}}, {"int_id": 2131, "ref_id": "303061", "name": "Archinetova", "geometry": {"type": "Point", "coordinates": [14.5553811524467, 46.056254518624]}}, {"int_id": 2132, "ref_id": "303062", "name": "Archinetova", "geometry": {"type": "Point", "coordinates": [14.5567446524791, 46.056019318024]}}, {"int_id": 2133, "ref_id": "304021", "name": "Osenjakova", "geometry": {"type": "Point", "coordinates": [14.5608268973777, 46.0561815767354]}}, {"int_id": 2134, "ref_id": "304022", "name": "Osenjakova", "geometry": {"type": "Point", "coordinates": [14.5621699638457, 46.0555715988365]}}, {"int_id": 2135, "ref_id": "304041", "name": "Chengdujska", "geometry": {"type": "Point", "coordinates": [14.5659071731747, 46.0551790871287]}}, {"int_id": 2136, "ref_id": "304072", "name": "Polje", "geometry": {"type": "Point", "coordinates": [14.5838588068776, 46.0536865835799]}}, {"int_id": 2137, "ref_id": "304091", "name": "Cesta na Vev\u010de", "geometry": {"type": "Point", "coordinates": [14.5894131474561, 46.0540213634546]}}, {"int_id": 2138, "ref_id": "304092", "name": "Cesta na Vev\u010de", "geometry": {"type": "Point", "coordinates": [14.5896486316999, 46.0537870727057]}}, {"int_id": 2139, "ref_id": "304111", "name": "Petrol", "geometry": {"type": "Point", "coordinates": [14.6018958559998, 46.0569426256292]}}, {"int_id": 2140, "ref_id": "304112", "name": "Petrol", "geometry": {"type": "Point", "coordinates": [14.6018387873034, 46.0566550070868]}}, {"int_id": 2141, "ref_id": "304131", "name": "Silos", "geometry": {"type": "Point", "coordinates": [14.6062640384975, 46.0578285535522]}}, {"int_id": 2142, "ref_id": "304132", "name": "Silos", "geometry": {"type": "Point", "coordinates": [14.6066721405823, 46.0577191531978]}}, {"int_id": 2143, "ref_id": "204181", "name": "Center Zalog", "geometry": {"type": "Point", "coordinates": [14.6136752386467, 46.0607817707145]}}, {"int_id": 2144, "ref_id": "204182", "name": "Center Zalog", "geometry": {"type": "Point", "coordinates": [14.6137417404567, 46.0610685544933]}}, {"int_id": 2145, "ref_id": "204191", "name": "Zeleni gaj", "geometry": {"type": "Point", "coordinates": [14.6133417041208, 46.0657719866693]}}, {"int_id": 2146, "ref_id": "204192", "name": "Zeleni gaj", "geometry": {"type": "Point", "coordinates": [14.6132242812701, 46.0663425852918]}}, {"int_id": 2147, "ref_id": "204201", "name": "Saturnus", "geometry": {"type": "Point", "coordinates": [14.6084498528221, 46.067198961327]}}, {"int_id": 2148, "ref_id": "204211", "name": "ZALOG", "geometry": {"type": "Point", "coordinates": [14.6048679805178, 46.0690964259996]}}, {"int_id": 2149, "ref_id": "202091", "name": "Sredi\u0161ka", "geometry": {"type": "Point", "coordinates": [14.5248530374981, 46.0625303856775]}}, {"int_id": 2150, "ref_id": "202092", "name": "Sredi\u0161ka", "geometry": {"type": "Point", "coordinates": [14.5263063553858, 46.0630727786738]}}, {"int_id": 2151, "ref_id": "204061", "name": "Hrastje", "geometry": {"type": "Point", "coordinates": [14.5633281342416, 46.074654664111]}}, {"int_id": 2152, "ref_id": "204062", "name": "Hrastje", "geometry": {"type": "Point", "coordinates": [14.5637845561949, 46.0746909404647]}}, {"int_id": 2153, "ref_id": "204071", "name": "Sneberje", "geometry": {"type": "Point", "coordinates": [14.5690663487487, 46.0778165548515]}}, {"int_id": 2154, "ref_id": "204072", "name": "Sneberje", "geometry": {"type": "Point", "coordinates": [14.5695140029539, 46.0778972251394]}}, {"int_id": 2156, "ref_id": "0", "name": "", "geometry": {"type": "Point", "coordinates": [14.5804591856283, 46.0724783858221]}}, {"int_id": 2157, "ref_id": "304073", "name": "Polje", "geometry": {"type": "Point", "coordinates": [14.583380305327, 46.0547232015821]}}, {"int_id": 2158, "ref_id": "304101", "name": "VEV\u010cE", "geometry": {"type": "Point", "coordinates": [14.5928518713427, 46.0495224354619]}}, {"int_id": 2159, "ref_id": "403031", "name": "Pod Golovcem", "geometry": {"type": "Point", "coordinates": [14.5299335821447, 46.0485397859698]}}, {"int_id": 2160, "ref_id": "403032", "name": "Pod Golovcem", "geometry": {"type": "Point", "coordinates": [14.5299234236632, 46.0484020012933]}}, {"int_id": 2161, "ref_id": "403041", "name": "\u0160tepanja vas", "geometry": {"type": "Point", "coordinates": [14.5375551922354, 46.048018191623]}}, {"int_id": 2162, "ref_id": "403061", "name": "Rast", "geometry": {"type": "Point", "coordinates": [14.5527966953013, 46.0467650358979]}}, {"int_id": 2163, "ref_id": "403062", "name": "Rast", "geometry": {"type": "Point", "coordinates": [14.5529696589914, 46.046550417811]}}, {"int_id": 2164, "ref_id": "404011", "name": "Hru\u0161ica", "geometry": {"type": "Point", "coordinates": [14.5592465274681, 46.045579741671]}}, {"int_id": 2165, "ref_id": "404012", "name": "Hru\u0161ica", "geometry": {"type": "Point", "coordinates": [14.5604542338362, 46.0451824142776]}}, {"int_id": 2166, "ref_id": "404021", "name": "Cesta v Bizovik", "geometry": {"type": "Point", "coordinates": [14.5699107187337, 46.044648308075]}}, {"int_id": 2167, "ref_id": "404022", "name": "Cesta v Bizovik", "geometry": {"type": "Point", "coordinates": [14.5702847383715, 46.0444428781081]}}, {"int_id": 2168, "ref_id": "404031", "name": "Dobrunje", "geometry": {"type": "Point", "coordinates": [14.5796107563175, 46.0432198441493]}}, {"int_id": 2169, "ref_id": "404032", "name": "Dobrunje", "geometry": {"type": "Point", "coordinates": [14.5801006732324, 46.0429726608002]}}, {"int_id": 2170, "ref_id": "404041", "name": "Po\u0161ta Dobrunje", "geometry": {"type": "Point", "coordinates": [14.5862106101539, 46.0420525254306]}}, {"int_id": 2171, "ref_id": "404042", "name": "Po\u0161ta Dobrunje", "geometry": {"type": "Point", "coordinates": [14.5862769428865, 46.0418722607821]}}, {"int_id": 2172, "ref_id": "404051", "name": "Kpl", "geometry": {"type": "Point", "coordinates": [14.5919722928302, 46.0415496010355]}}, {"int_id": 2173, "ref_id": "404052", "name": "Kpl", "geometry": {"type": "Point", "coordinates": [14.5930155076351, 46.0411679981144]}}, {"int_id": 2174, "ref_id": "404061", "name": "Zadvor", "geometry": {"type": "Point", "coordinates": [14.5973966706784, 46.0404717847642]}}, {"int_id": 2175, "ref_id": "404062", "name": "Zadvor", "geometry": {"type": "Point", "coordinates": [14.5976815875312, 46.0400166148246]}}, {"int_id": 2176, "ref_id": "404071", "name": "Cesta v Zavoglje", "geometry": {"type": "Point", "coordinates": [14.6024928927269, 46.040283078906]}}, {"int_id": 2177, "ref_id": "404072", "name": "Cesta v Zavoglje", "geometry": {"type": "Point", "coordinates": [14.6032843599087, 46.0399630417283]}}, {"int_id": 2178, "ref_id": "404082", "name": "Kri\u017ei\u0161\u010de Sostro", "geometry": {"type": "Point", "coordinates": [14.6078301910186, 46.0373007576135]}}, {"int_id": 2179, "ref_id": "404091", "name": "SOSTRO", "geometry": {"type": "Point", "coordinates": [14.6044300835047, 46.0318346539589]}}, {"int_id": 2180, "ref_id": "704031", "name": "Vrhovci", "geometry": {"type": "Point", "coordinates": [14.4552457075807, 46.0439071594799]}}, {"int_id": 2181, "ref_id": "704022", "name": "Brdo", "geometry": {"type": "Point", "coordinates": [14.4535815047364, 46.0473518748528]}}, {"int_id": 2182, "ref_id": "704021", "name": "Brdo", "geometry": {"type": "Point", "coordinates": [14.4544401124732, 46.0475893289083]}}, {"int_id": 2183, "ref_id": "703062", "name": "Preval", "geometry": {"type": "Point", "coordinates": [14.4588031173976, 46.047461876198]}}, {"int_id": 2184, "ref_id": "703061", "name": "Preval", "geometry": {"type": "Point", "coordinates": [14.4592277950216, 46.04725743627]}}, {"int_id": 2185, "ref_id": "703052", "name": "Podmornica", "geometry": {"type": "Point", "coordinates": [14.4643458194798, 46.047409180621]}}, {"int_id": 2186, "ref_id": "703051", "name": "Podmornica", "geometry": {"type": "Point", "coordinates": [14.4650218068887, 46.0472638488987]}}, {"int_id": 2187, "ref_id": "703042", "name": "Vi\u0161ko polje", "geometry": {"type": "Point", "coordinates": [14.4690759204989, 46.0463661760391]}}, {"int_id": 2188, "ref_id": "703041", "name": "Vi\u0161ko polje", "geometry": {"type": "Point", "coordinates": [14.4695828205199, 46.0459405458918]}}, {"int_id": 2189, "ref_id": "703032", "name": "Jamnikarjeva", "geometry": {"type": "Point", "coordinates": [14.4744900543158, 46.0451372022588]}}, {"int_id": 2190, "ref_id": "703031", "name": "Jamnikarjeva", "geometry": {"type": "Point", "coordinates": [14.4752195167235, 46.0448326076806]}}, {"int_id": 2191, "ref_id": "703012", "name": "Ro\u017ena dolina", "geometry": {"type": "Point", "coordinates": [14.4819687322362, 46.0479019720208]}}, {"int_id": 2192, "ref_id": "703011", "name": "Ro\u017ena dolina", "geometry": {"type": "Point", "coordinates": [14.4822085265935, 46.0477793973284]}}, {"int_id": 2193, "ref_id": "702022", "name": "\u0160tudentsko naselje", "geometry": {"type": "Point", "coordinates": [14.4874220959407, 46.0493868667932]}}, {"int_id": 2194, "ref_id": "702021", "name": "\u0160tudentsko naselje", "geometry": {"type": "Point", "coordinates": [14.4884871017185, 46.0495360420264]}}, {"int_id": 2195, "ref_id": "702012", "name": "Pod Ro\u017enikom", "geometry": {"type": "Point", "coordinates": [14.4919779753942, 46.0511971984579]}}, {"int_id": 2196, "ref_id": "702011", "name": "Pod Ro\u017enikom", "geometry": {"type": "Point", "coordinates": [14.4922797762011, 46.0511154924379]}}, {"int_id": 2197, "ref_id": "602012", "name": "Cankarjev dom", "geometry": {"type": "Point", "coordinates": [14.4970181229667, 46.0500969106315]}}, {"int_id": 2198, "ref_id": "602011", "name": "Cankarjev dom", "geometry": {"type": "Point", "coordinates": [14.4985177210652, 46.0510371818915]}}, {"int_id": 2199, "ref_id": "101011", "name": "Hranilni\u0161ka", "geometry": {"type": "Point", "coordinates": [14.507314712315, 46.0637352088869]}}, {"int_id": 2200, "ref_id": "101012", "name": "Hranilni\u0161ka", "geometry": {"type": "Point", "coordinates": [14.5076000429589, 46.0638776016509]}}, {"int_id": 2201, "ref_id": "101021", "name": "Parmova", "geometry": {"type": "Point", "coordinates": [14.5047452664051, 46.0637332738403]}}, {"int_id": 2202, "ref_id": "101022", "name": "Parmova", "geometry": {"type": "Point", "coordinates": [14.5044379113636, 46.0638467697702]}}, {"int_id": 2203, "ref_id": "101061", "name": "Bratov \u017didan", "geometry": {"type": "Point", "coordinates": [14.5029670392812, 46.0652125914215]}}, {"int_id": 2204, "ref_id": "101062", "name": "Bratov \u017didan", "geometry": {"type": "Point", "coordinates": [14.5031369934877, 46.0654599623076]}}, {"int_id": 2205, "ref_id": "102051", "name": "Podmil\u0161\u010dakova", "geometry": {"type": "Point", "coordinates": [14.5033811152253, 46.0694200442557]}}, {"int_id": 2206, "ref_id": "102052", "name": "Podmil\u0161\u010dakova", "geometry": {"type": "Point", "coordinates": [14.503734900294, 46.0696646188722]}}, {"int_id": 2207, "ref_id": "102071", "name": "Vodovodna", "geometry": {"type": "Point", "coordinates": [14.5045382628815, 46.0746816258463]}}, {"int_id": 2208, "ref_id": "102072", "name": "Vodovodna", "geometry": {"type": "Point", "coordinates": [14.5051744436035, 46.075412353716]}}, {"int_id": 2209, "ref_id": "103021", "name": "Brinje", "geometry": {"type": "Point", "coordinates": [14.5056154640785, 46.076962365076]}}, {"int_id": 2210, "ref_id": "103022", "name": "Brinje", "geometry": {"type": "Point", "coordinates": [14.5063455897371, 46.0779175872901]}}, {"int_id": 2211, "ref_id": "103061", "name": "Pohorskega bataljona", "geometry": {"type": "Point", "coordinates": [14.5072916018955, 46.0824088609516]}}, {"int_id": 2212, "ref_id": "103062", "name": "Pohorskega bataljona", "geometry": {"type": "Point", "coordinates": [14.5074840738995, 46.0820525723104]}}, {"int_id": 2213, "ref_id": "103091", "name": "Gorjan\u010deva", "geometry": {"type": "Point", "coordinates": [14.5075294684764, 46.0849519977653]}}, {"int_id": 2214, "ref_id": "103092", "name": "Gorjan\u010deva", "geometry": {"type": "Point", "coordinates": [14.5079036791005, 46.0860602839651]}}, {"int_id": 2215, "ref_id": "103111", "name": "7. septembra", "geometry": {"type": "Point", "coordinates": [14.5084696098982, 46.0900125259025]}}, {"int_id": 2216, "ref_id": "103112", "name": "7. septembra", "geometry": {"type": "Point", "coordinates": [14.5086353966768, 46.0898229796124]}}, {"int_id": 2217, "ref_id": "103121", "name": "\u010cerinova", "geometry": {"type": "Point", "coordinates": [14.5121427492657, 46.0899877293292]}}, {"int_id": 2218, "ref_id": "103122", "name": "\u010cerinova", "geometry": {"type": "Point", "coordinates": [14.5124448134791, 46.0902824219899]}}, {"int_id": 2219, "ref_id": "104021", "name": "Kali\u0161nikov trg", "geometry": {"type": "Point", "coordinates": [14.5107395210725, 46.0936096229744]}}, {"int_id": 2220, "ref_id": "104022", "name": "Kali\u0161nikov trg", "geometry": {"type": "Point", "coordinates": [14.5111587770356, 46.0935912186703]}}, {"int_id": 2221, "ref_id": "104011", "name": "SAVLJE", "geometry": {"type": "Point", "coordinates": [14.503254, 46.095171]}}, {"int_id": 2223, "ref_id": "804061", "name": "Stane\u017ei\u010de", "geometry": {"type": "Point", "coordinates": [14.4459923233628, 46.110308402471]}}, {"int_id": 2224, "ref_id": "804062", "name": "Stane\u017ei\u010de", "geometry": {"type": "Point", "coordinates": [14.4427775507362, 46.115361261912]}}, {"int_id": 2225, "ref_id": "703022", "name": "Cesta XV", "geometry": {"type": "Point", "coordinates": [14.4802774130743, 46.0466046027991]}}, {"int_id": 2226, "ref_id": "703021", "name": "Cesta XV", "geometry": {"type": "Point", "coordinates": [14.4809096078738, 46.0459573556179]}}, {"int_id": 2227, "ref_id": "204132", "name": "Nadgorica", "geometry": {"type": "Point", "coordinates": [14.5587907666205, 46.0965760067762]}}, {"int_id": 2228, "ref_id": "204141", "name": "Belinka", "geometry": {"type": "Point", "coordinates": [14.5746803012386, 46.0914284680761]}}, {"int_id": 2229, "ref_id": "204142", "name": "Belinka", "geometry": {"type": "Point", "coordinates": [14.5757280921188, 46.0911968501555]}}, {"int_id": 2230, "ref_id": "204151", "name": "\u0160entjakob", "geometry": {"type": "Point", "coordinates": [14.5824378546025, 46.091376962714]}}, {"int_id": 2231, "ref_id": "204152", "name": "\u0160entjakob", "geometry": {"type": "Point", "coordinates": [14.5819469985043, 46.0911877497691]}}, {"int_id": 2232, "ref_id": "204161", "name": "Reaktor", "geometry": {"type": "Point", "coordinates": [14.5960468499348, 46.0910442724536]}}, {"int_id": 2233, "ref_id": "204162", "name": "Reaktor", "geometry": {"type": "Point", "coordinates": [14.5973329665098, 46.0908041860158]}}, {"int_id": 2234, "ref_id": "204171", "name": "BERI\u010cEVO", "geometry": {"type": "Point", "coordinates": [14.6135653766551, 46.0901359980717]}}, {"int_id": 2235, "ref_id": "803181", "name": "KAMNA GORICA", "geometry": {"type": "Point", "coordinates": [14.4651971684716, 46.0794128450809]}}, {"int_id": 2236, "ref_id": "803171", "name": "Spar", "geometry": {"type": "Point", "coordinates": [14.4670230843961, 46.0768851769341]}}, {"int_id": 2237, "ref_id": "803172", "name": "Spar", "geometry": {"type": "Point", "coordinates": [14.4676108743937, 46.0770029462891]}}, {"int_id": 2238, "ref_id": "803161", "name": "Bratov Babnik", "geometry": {"type": "Point", "coordinates": [14.4629982766378, 46.0747447580168]}}, {"int_id": 2239, "ref_id": "803162", "name": "Bratov Babnik", "geometry": {"type": "Point", "coordinates": [14.4638432106842, 46.0749701988413]}}, {"int_id": 2240, "ref_id": "802052", "name": "Drenikova", "geometry": {"type": "Point", "coordinates": [14.4962090122151, 46.0668381822726]}}, {"int_id": 2241, "ref_id": "102011", "name": "Samova", "geometry": {"type": "Point", "coordinates": [14.505442213679, 46.0671138382894]}}, {"int_id": 2242, "ref_id": "102012", "name": "Samova", "geometry": {"type": "Point", "coordinates": [14.5049636004673, 46.0667738851436]}}, {"int_id": 2243, "ref_id": "203044", "name": "\u0160ola Jar\u0161e", "geometry": {"type": "Point", "coordinates": [14.5341802327549, 46.0664026885602]}}, {"int_id": 2244, "ref_id": "502022", "name": "Ro\u0161ka", "geometry": {"type": "Point", "coordinates": [14.5207411189343, 46.0486676620314]}}, {"int_id": 2245, "ref_id": "203112", "name": "BTC-uprava", "geometry": {"type": "Point", "coordinates": [14.5420302286368, 46.0681796083574]}}, {"int_id": 2246, "ref_id": "203111", "name": "BTC-uprava", "geometry": {"type": "Point", "coordinates": [14.54187936884, 46.0683627436705]}}, {"int_id": 2247, "ref_id": "203122", "name": "BTC-tr\u017enica", "geometry": {"type": "Point", "coordinates": [14.5439740522248, 46.0654937304734]}}, {"int_id": 2248, "ref_id": "203121", "name": "BTC-tr\u017enica", "geometry": {"type": "Point", "coordinates": [14.5442369722116, 46.0656605142907]}}, {"int_id": 2249, "ref_id": "203142", "name": "BTC-Emporium", "geometry": {"type": "Point", "coordinates": [14.5449699852891, 46.0617841842246]}}, {"int_id": 2250, "ref_id": "203141", "name": "BTC-Emporium", "geometry": {"type": "Point", "coordinates": [14.544999032953, 46.0621495427638]}}, {"int_id": 2251, "ref_id": "203132", "name": "BTC-Kolosej", "geometry": {"type": "Point", "coordinates": [14.5477370207839, 46.0659349521535]}}, {"int_id": 2252, "ref_id": "203131", "name": "BTC-Kolosej", "geometry": {"type": "Point", "coordinates": [14.5485897737553, 46.0656260766576]}}, {"int_id": 2253, "ref_id": "703112", "name": "Dolgi most", "geometry": {"type": "Point", "coordinates": [14.4653790164028, 46.0368441633802]}}, {"int_id": 2254, "ref_id": "703111", "name": "Dolgi most", "geometry": {"type": "Point", "coordinates": [14.4671790974108, 46.0370583059353]}}, {"int_id": 2255, "ref_id": "104113", "name": "Primo\u017ei\u010deva", "geometry": {"type": "Point", "coordinates": [14.5301912886365, 46.1032875491187]}}, {"int_id": 2256, "ref_id": "104121", "name": "Polan\u0161kova", "geometry": {"type": "Point", "coordinates": [14.5258589025328, 46.105865330461]}}, {"int_id": 2257, "ref_id": "104122", "name": "Polan\u0161kova", "geometry": {"type": "Point", "coordinates": [14.5256662179278, 46.1064284014676]}}, {"int_id": 2258, "ref_id": "104131", "name": "Pot v Smre\u010dje", "geometry": {"type": "Point", "coordinates": [14.5276907438315, 46.1092956143526]}}, {"int_id": 2259, "ref_id": "104132", "name": "Pot v Smre\u010dje", "geometry": {"type": "Point", "coordinates": [14.5283180448258, 46.1092300323796]}}, {"int_id": 2260, "ref_id": "104141", "name": "Pot v Hrastovec", "geometry": {"type": "Point", "coordinates": [14.5321998473834, 46.1083507702894]}}, {"int_id": 2261, "ref_id": "104142", "name": "Pot v Hrastovec", "geometry": {"type": "Point", "coordinates": [14.5328350100705, 46.1074527459523]}}, {"int_id": 2262, "ref_id": "104151", "name": "O.\u0161. Maksa Pe\u010darja", "geometry": {"type": "Point", "coordinates": [14.5346993029315, 46.1051956225766]}}, {"int_id": 2263, "ref_id": "104152", "name": "O.\u0161. Maksa Pe\u010darja", "geometry": {"type": "Point", "coordinates": [14.5345150799299, 46.1050649100751]}}, {"int_id": 2264, "ref_id": "\u0160martinska 152 g", "name": "", "geometry": {"type": "Point", "coordinates": [14.546139, 46.068218]}}, {"int_id": 2265, "ref_id": "C. v Mestni log 72 ", "name": "", "geometry": {"type": "Point", "coordinates": [14.488542, 46.036879]}}, {"int_id": 2279, "ref_id": "804072", "name": "Medno", "geometry": {"type": "Point", "coordinates": [14.4376775698521, 46.1238801145559]}}, {"int_id": 2280, "ref_id": "804071", "name": "Medno", "geometry": {"type": "Point", "coordinates": [14.4376783235048, 46.1234578358888]}}, {"int_id": 2281, "ref_id": "805011", "name": "Medvode a.p.", "geometry": {"type": "Point", "coordinates": [14.4126036903577, 46.1385982714506]}}, {"int_id": 2282, "ref_id": "805012", "name": "Medvode a.p.", "geometry": {"type": "Point", "coordinates": [14.4144292638562, 46.1382196271512]}}, {"int_id": 2283, "ref_id": "805021", "name": "Medvode", "geometry": {"type": "Point", "coordinates": [14.4106481444447, 46.140910741707]}}, {"int_id": 2284, "ref_id": "805031", "name": "Novo naselje", "geometry": {"type": "Point", "coordinates": [14.4088994767071, 46.1419251206964]}}, {"int_id": 2285, "ref_id": "805032", "name": "Novo naselje", "geometry": {"type": "Point", "coordinates": [14.4087060600543, 46.142044981352]}}, {"int_id": 2286, "ref_id": "805041", "name": "MEDVODE naselje", "geometry": {"type": "Point", "coordinates": [14.4065654380261, 46.1425657938794]}}, {"int_id": 2287, "ref_id": "804141", "name": "Tacenski most", "geometry": {"type": "Point", "coordinates": [14.4616697217749, 46.1176434714006]}}, {"int_id": 2288, "ref_id": "804142", "name": "Tacenski most", "geometry": {"type": "Point", "coordinates": [14.4620329313273, 46.118274172724]}}, {"int_id": 2289, "ref_id": "804151", "name": "Tacen", "geometry": {"type": "Point", "coordinates": [14.466880563933, 46.1202398123933]}}, {"int_id": 2290, "ref_id": "804152", "name": "Tacen", "geometry": {"type": "Point", "coordinates": [14.4669464372034, 46.1201476268817]}}, {"int_id": 2291, "ref_id": "104191", "name": "\u0160martno", "geometry": {"type": "Point", "coordinates": [14.4778112389449, 46.1237547303633]}}, {"int_id": 2292, "ref_id": "104192", "name": "\u0160martno", "geometry": {"type": "Point", "coordinates": [14.4769928356368, 46.12334095462]}}, {"int_id": 2293, "ref_id": "104202", "name": "Zg. Gameljne", "geometry": {"type": "Point", "coordinates": [14.4865820202575, 46.1256914497371]}}, {"int_id": 2294, "ref_id": "104211", "name": "Ra\u0161ica", "geometry": {"type": "Point", "coordinates": [14.4933497752674, 46.1271117235912]}}, {"int_id": 2295, "ref_id": "104212", "name": "Ra\u0161ica", "geometry": {"type": "Point", "coordinates": [14.4942976127467, 46.1269597315082]}}, {"int_id": 2296, "ref_id": "104221", "name": "GAMELJNE", "geometry": {"type": "Point", "coordinates": [14.4970666067739, 46.1268015000902]}}, {"int_id": 2297, "ref_id": "203191", "name": "Yulon", "geometry": {"type": "Point", "coordinates": [14.552712, 46.061986]}}, {"int_id": 2298, "ref_id": "203192", "name": "Yulon", "geometry": {"type": "Point", "coordinates": [14.553738, 46.061852]}}, {"int_id": 2299, "ref_id": "304051", "name": "FU\u017dINE P+R", "geometry": {"type": "Point", "coordinates": [14.5657533369432, 46.0520364175342]}}, {"int_id": 2300, "ref_id": "103051", "name": "TOVARNA LEK", "geometry": {"type": "Point", "coordinates": [14.5010738402604, 46.0793690268546]}}, {"int_id": 2301, "ref_id": "103011", "name": "Toplarna", "geometry": {"type": "Point", "coordinates": [14.5002135465797, 46.0765221526591]}}, {"int_id": 2302, "ref_id": "103012", "name": "Toplarna", "geometry": {"type": "Point", "coordinates": [14.5003913078894, 46.0763351988842]}}, {"int_id": 2303, "ref_id": "102061", "name": "Mostovna", "geometry": {"type": "Point", "coordinates": [14.4994673368048, 46.0742984465222]}}, {"int_id": 2304, "ref_id": "102062", "name": "Mostovna", "geometry": {"type": "Point", "coordinates": [14.4997909001977, 46.0744557792793]}}, {"int_id": 2305, "ref_id": "802061", "name": "Tiki", "geometry": {"type": "Point", "coordinates": [14.4951453995516, 46.0729595617098]}}, {"int_id": 2306, "ref_id": "802062", "name": "Tiki", "geometry": {"type": "Point", "coordinates": [14.495428416438, 46.072781524367]}}, {"int_id": 2307, "ref_id": "802051", "name": "Drenikova", "geometry": {"type": "Point", "coordinates": [14.496233611701, 46.0670750543992]}}, {"int_id": 2308, "ref_id": "203081", "name": "TOMA\u010cEVO", "geometry": {"type": "Point", "coordinates": [14.5367319984973, 46.0795024004748]}}, {"int_id": 2309, "ref_id": "203071", "name": "Nove \u017dale", "geometry": {"type": "Point", "coordinates": [14.5315843856506, 46.0743922225175]}}, {"int_id": 2310, "ref_id": "203072", "name": "Nove \u017dale", "geometry": {"type": "Point", "coordinates": [14.5321195846937, 46.074574781396]}}, {"int_id": 2311, "ref_id": "203031", "name": "Toma\u010devska", "geometry": {"type": "Point", "coordinates": [14.5273421781761, 46.0695306961881]}}, {"int_id": 2312, "ref_id": "203032", "name": "Toma\u010devska", "geometry": {"type": "Point", "coordinates": [14.5274983509624, 46.0692545747422]}}, {"int_id": 2313, "ref_id": "102021", "name": "Topni\u0161ka", "geometry": {"type": "Point", "coordinates": [14.5149228423992, 46.0672344350151]}}, {"int_id": 2314, "ref_id": "102022", "name": "Topni\u0161ka", "geometry": {"type": "Point", "coordinates": [14.5148355703627, 46.0670790150096]}}, {"int_id": 2315, "ref_id": "603092", "name": "Livada", "geometry": {"type": "Point", "coordinates": [14.5124860998746, 46.0331502007534]}}, {"int_id": 2316, "ref_id": "603091", "name": "Livada", "geometry": {"type": "Point", "coordinates": [14.5113156846602, 46.0343603175769]}}, {"int_id": 2317, "ref_id": "603102", "name": "Ilovica", "geometry": {"type": "Point", "coordinates": [14.5116442787989, 46.0277361449801]}}, {"int_id": 2318, "ref_id": "603101", "name": "Ilovica", "geometry": {"type": "Point", "coordinates": [14.511683754129, 46.0272936043655]}}, {"int_id": 2319, "ref_id": "603112", "name": "Lahova pot", "geometry": {"type": "Point", "coordinates": [14.5110600058389, 46.0244493799523]}}, {"int_id": 2320, "ref_id": "603111", "name": "Lahova pot", "geometry": {"type": "Point", "coordinates": [14.511304459977, 46.0244871008917]}}, {"int_id": 2321, "ref_id": "604012", "name": "I\u0161ki most", "geometry": {"type": "Point", "coordinates": [14.5103365236176, 46.0198198672622]}}, {"int_id": 2322, "ref_id": "604011", "name": "I\u0161ki most", "geometry": {"type": "Point", "coordinates": [14.5106727296962, 46.0196012053216]}}, {"int_id": 2323, "ref_id": "604021", "name": "BARJE", "geometry": {"type": "Point", "coordinates": [14.513245724946, 46.014413677453]}}, {"int_id": 2324, "ref_id": "103081", "name": "NOVE STO\u017dICE P+R", "geometry": {"type": "Point", "coordinates": [14.519774, 46.081845]}}, {"int_id": 2325, "ref_id": "103041", "name": "Puhova", "geometry": {"type": "Point", "coordinates": [14.5195276329798, 46.0764620845281]}}, {"int_id": 2326, "ref_id": "103042", "name": "Puhova", "geometry": {"type": "Point", "coordinates": [14.5199693652432, 46.0768816213189]}}, {"int_id": 2327, "ref_id": "102091", "name": "Kardeljeva plo\u0161\u010dad", "geometry": {"type": "Point", "coordinates": [14.519127204168, 46.0717802316615]}}, {"int_id": 2328, "ref_id": "102092", "name": "Kardeljeva plo\u0161\u010dad", "geometry": {"type": "Point", "coordinates": [14.5196174922125, 46.0725598758594]}}, {"int_id": 2329, "ref_id": "102031", "name": "Gasilska brigada", "geometry": {"type": "Point", "coordinates": [14.5163895242491, 46.0683122204821]}}, {"int_id": 2330, "ref_id": "102032", "name": "Gasilska brigada", "geometry": {"type": "Point", "coordinates": [14.5170917229402, 46.0684989225221]}}, {"int_id": 2331, "ref_id": "101034", "name": "Kr\u017ei\u010deva", "geometry": {"type": "Point", "coordinates": [14.5142398703514, 46.0653036134428]}}, {"int_id": 2332, "ref_id": "204121", "name": "BRN\u010cI\u010cEVA", "geometry": {"type": "Point", "coordinates": [14.555810025269, 46.093735103828]}}, {"int_id": 2333, "ref_id": "204111", "name": "Slovenijales", "geometry": {"type": "Point", "coordinates": [14.5525718253956, 46.0938797664379]}}, {"int_id": 2334, "ref_id": "204112", "name": "Slovenijales", "geometry": {"type": "Point", "coordinates": [14.5533908952253, 46.0935650658959]}}, {"int_id": 2335, "ref_id": "104091", "name": "Cesta na Brod", "geometry": {"type": "Point", "coordinates": [14.5461328227218, 46.0965950903672]}}, {"int_id": 2336, "ref_id": "104092", "name": "Cesta na Brod", "geometry": {"type": "Point", "coordinates": [14.5470074985983, 46.0960606197726]}}, {"int_id": 2337, "ref_id": "104081", "name": "Obrtna cona", "geometry": {"type": "Point", "coordinates": [14.5422142160388, 46.0977519102331]}}, {"int_id": 2338, "ref_id": "104082", "name": "Obrtna cona", "geometry": {"type": "Point", "coordinates": [14.5433187221436, 46.097300000303]}}, {"int_id": 2339, "ref_id": "104071", "name": "\u0160landrova", "geometry": {"type": "Point", "coordinates": [14.5356621798438, 46.0979042125744]}}, {"int_id": 2340, "ref_id": "104072", "name": "\u0160landrova", "geometry": {"type": "Point", "coordinates": [14.5360097084519, 46.09779540501]}}, {"int_id": 2341, "ref_id": "104061", "name": "Elma", "geometry": {"type": "Point", "coordinates": [14.5271842337291, 46.0985848889383]}}, {"int_id": 2342, "ref_id": "104062", "name": "Elma", "geometry": {"type": "Point", "coordinates": [14.5275079429496, 46.0983366746928]}}, {"int_id": 2518, "ref_id": "425012", "name": "Javor pri Sostrem K.", "geometry": {"type": "Point", "coordinates": [14.6529777019175, 46.0122155516923]}}, {"int_id": 2519, "ref_id": "425011", "name": "Javor pri Sostrem K.", "geometry": {"type": "Point", "coordinates": [14.6529238030005, 46.0125472843239]}}, {"int_id": 2582, "ref_id": "404132", "name": "Ljibljana Dobrunje", "geometry": {"type": "Point", "coordinates": [14.5824649057136, 46.0381325767272]}}, {"int_id": 2583, "ref_id": "404131", "name": "Ljubljana Dobrunje", "geometry": {"type": "Point", "coordinates": [14.5824199899494, 46.0383703107647]}}, {"int_id": 2584, "ref_id": "404142", "name": "Pod Urhom", "geometry": {"type": "Point", "coordinates": [14.5892834838639, 46.0381101263042]}}, {"int_id": 2585, "ref_id": "404141", "name": "Pod Urhom", "geometry": {"type": "Point", "coordinates": [14.5891128039599, 46.038279042769]}}, {"int_id": 2636, "ref_id": "304122", "name": "Vev\u010de Papirnica", "geometry": {"type": "Point", "coordinates": [14.5942680336943, 46.0472351730541]}}, {"int_id": 2637, "ref_id": "304121", "name": "Vev\u010de Papirnica", "geometry": {"type": "Point", "coordinates": [14.5944888196086, 46.0474348077732]}}, {"int_id": 2679, "ref_id": "415061", "name": "MALI LIPOGLAV", "geometry": {"type": "Point", "coordinates": [14.6485887031089, 45.992198152971]}}, {"int_id": 2724, "ref_id": "415052", "name": "Pance K.", "geometry": {"type": "Point", "coordinates": [14.6637425795166, 45.9886759878044]}}, {"int_id": 2725, "ref_id": "415051", "name": "Pance K.", "geometry": {"type": "Point", "coordinates": [14.6640839393246, 45.9885006569594]}}, {"int_id": 2764, "ref_id": "415022", "name": "Podlipoglav", "geometry": {"type": "Point", "coordinates": [14.6233103835997, 46.0169034042979]}}, {"int_id": 2765, "ref_id": "415021", "name": "Podlipoglav", "geometry": {"type": "Point", "coordinates": [14.6232744509884, 46.0171693937782]}}, {"int_id": 2834, "ref_id": "415012", "name": "Sadinja vas", "geometry": {"type": "Point", "coordinates": [14.6121357011182, 46.0215908265544]}}, {"int_id": 2835, "ref_id": "415011", "name": "Sadinja vas", "geometry": {"type": "Point", "coordinates": [14.612207566341, 46.0217472777609]}}, {"int_id": 2836, "ref_id": "415042", "name": "Selo pri Pancah K.", "geometry": {"type": "Point", "coordinates": [14.6572823961684, 45.9991540651452]}}, {"int_id": 2837, "ref_id": "415041", "name": "Selo pri Pancah K.", "geometry": {"type": "Point", "coordinates": [14.6572284972514, 45.9993387529115]}}, {"int_id": 2956, "ref_id": "406081", "name": "TUJI GRM", "geometry": {"type": "Point", "coordinates": [14.7210640358352, 46.0509501934937]}}, {"int_id": 2966, "ref_id": "415032", "name": "Veliki Lipoglav", "geometry": {"type": "Point", "coordinates": [14.6530408077225, 46.0052288900644]}}, {"int_id": 2967, "ref_id": "415031", "name": "Veliki Lipoglav", "geometry": {"type": "Point", "coordinates": [14.6532204707793, 46.0053415685255]}}, {"int_id": 3027, "ref_id": "104171", "name": "Zasavska", "geometry": {"type": "Point", "coordinates": [14.5460313054314, 46.1038500191469]}}, {"int_id": 3028, "ref_id": "104172", "name": "Zasavska", "geometry": {"type": "Point", "coordinates": [14.5470762844263, 46.1032936541066]}}, {"int_id": 3029, "ref_id": "104181", "name": "Je\u017ea", "geometry": {"type": "Point", "coordinates": [14.553127523703, 46.1006665289623]}}, {"int_id": 3030, "ref_id": "104182", "name": "Je\u017ea", "geometry": {"type": "Point", "coordinates": [14.5538204214787, 46.1001218585369]}}, {"int_id": 3031, "ref_id": "204131", "name": "Nadgorica", "geometry": {"type": "Point", "coordinates": [14.5580112653559, 46.0974956006654]}}, {"int_id": 3103, "ref_id": "604031", "name": "MESTNI LOG", "geometry": {"type": "Point", "coordinates": [14.472651640192, 46.0300779457793]}}, {"int_id": 3106, "ref_id": "Alja\u017eeva 4", "name": "", "geometry": {"type": "Point", "coordinates": [14.494367, 46.065383]}}, {"int_id": 3107, "ref_id": "A\u0161ker\u010deva 4", "name": "", "geometry": {"type": "Point", "coordinates": [14.499136, 46.046869]}}, {"int_id": 3108, "ref_id": "BTC \u0160martinska 152", "name": "", "geometry": {"type": "Point", "coordinates": [14.546139, 46.068218]}}, {"int_id": 3109, "ref_id": "Bratov Babnik 8", "name": "", "geometry": {"type": "Point", "coordinates": [14.466905, 46.076955]}}, {"int_id": 3110, "ref_id": "Brdnikova ulica 8", "name": "", "geometry": {"type": "Point", "coordinates": [14.453949, 46.048377]}}, {"int_id": 3111, "ref_id": "C. na Brdo 45", "name": "", "geometry": {"type": "Point", "coordinates": [14.47089, 46.045374]}}, {"int_id": 3112, "ref_id": "C. v Mestni log 72", "name": "", "geometry": {"type": "Point", "coordinates": [14.488542, 46.036879]}}, {"int_id": 3113, "ref_id": "Trg prekomorskih br. 1", "name": "", "geometry": {"type": "Point", "coordinates": [14.489199, 46.069364]}}, {"int_id": 3114, "ref_id": "Celov\u0161ka 104", "name": "", "geometry": {"type": "Point", "coordinates": [14.490817, 46.069128]}}, {"int_id": 3115, "ref_id": "Celov\u0161ka 163", "name": "", "geometry": {"type": "Point", "coordinates": [14.485647, 46.073316]}}, {"int_id": 3116, "ref_id": "Celov\u0161ka c.334", "name": "", "geometry": {"type": "Point", "coordinates": [14.46888, 46.093804]}}, {"int_id": 3117, "ref_id": "Celov\u0161ka cesta 121", "name": "", "geometry": {"type": "Point", "coordinates": [14.488599, 46.069919]}}, {"int_id": 3118, "ref_id": "Celov\u0161ka cesta 160", "name": "", "geometry": {"type": "Point", "coordinates": [14.48583, 46.074495]}}, {"int_id": 3119, "ref_id": "Celov\u0161ka cesta 212", "name": "", "geometry": {"type": "Point", "coordinates": [14.481374, 46.079789]}}, {"int_id": 3120, "ref_id": "Celov\u0161ka cesta 264", "name": "", "geometry": {"type": "Point", "coordinates": [14.477051, 46.085505]}}, {"int_id": 3121, "ref_id": "Celov\u0161ka cesta 69", "name": "", "geometry": {"type": "Point", "coordinates": [14.493957, 46.063599]}}, {"int_id": 3122, "ref_id": "Cesta v Mestni Log 55", "name": "", "geometry": {"type": "Point", "coordinates": [14.489568, 46.0362]}}, {"int_id": 3123, "ref_id": "Cesta v Mestni Log 81", "name": "", "geometry": {"type": "Point", "coordinates": [14.479374, 46.033545]}}, {"int_id": 3124, "ref_id": "Cesta II.grupe odredov 39", "name": "", "geometry": {"type": "Point", "coordinates": [14.595647, 46.036281]}}, {"int_id": 3125, "ref_id": "Cesta ob Sori 5", "name": "", "geometry": {"type": "Point", "coordinates": [14.411329, 46.13888]}}, {"int_id": 3126, "ref_id": "Cesta v Gameljne 6", "name": "", "geometry": {"type": "Point", "coordinates": [14.477514, 46.124305]}}, {"int_id": 3127, "ref_id": "Cesta v Mestni log 55", "name": "", "geometry": {"type": "Point", "coordinates": [14.489568, 46.0362]}}, {"int_id": 3128, "ref_id": "Dolenjska cesta 43", "name": "", "geometry": {"type": "Point", "coordinates": [14.524712, 46.035856]}}, {"int_id": 3129, "ref_id": "Dolenjska cesta 43", "name": "", "geometry": {"type": "Point", "coordinates": [14.524712, 46.035856]}}, {"int_id": 3130, "ref_id": "Dolgi most P+R", "name": "", "geometry": {"type": "Point", "coordinates": [14.458722, 46.035726]}}, {"int_id": 3131, "ref_id": "Dunajska 10", "name": "", "geometry": {"type": "Point", "coordinates": [14.507584, 46.06033]}}, {"int_id": 3133, "ref_id": "Dunajska 107", "name": "", "geometry": {"type": "Point", "coordinates": [14.51086, 46.074362]}}, {"int_id": 3134, "ref_id": "Dunajska 141", "name": "", "geometry": {"type": "Point", "coordinates": [14.512322, 46.080136]}}, {"int_id": 3135, "ref_id": "Dunajska 19", "name": "", "geometry": {"type": "Point", "coordinates": [14.506871235860222, 46.06084122492807]}}, {"int_id": 3136, "ref_id": "Dunajska 203", "name": "", "geometry": {"type": "Point", "coordinates": [14.5137, 46.08814]}}, {"int_id": 3137, "ref_id": "Dunajska 26", "name": "", "geometry": {"type": "Point", "coordinates": [14.509302, 46.062123]}}, {"int_id": 3138, "ref_id": "Dunajska 421", "name": "", "geometry": {"type": "Point", "coordinates": [14.536746, 46.1048]}}, {"int_id": 3139, "ref_id": "Dunajska c. 270", "name": "", "geometry": {"type": "Point", "coordinates": [14.519062, 46.097538]}}, {"int_id": 3140, "ref_id": "Dunajska cesta 158", "name": "", "geometry": {"type": "Point", "coordinates": [14.51454, 46.082179]}}, {"int_id": 3141, "ref_id": "Dunajska cesta 19", "name": "", "geometry": {"type": "Point", "coordinates": [14.506889202165905, 46.060928775037]}}, {"int_id": 3142, "ref_id": "Dunajska cesta 211", "name": "", "geometry": {"type": "Point", "coordinates": [14.513483, 46.08921]}}, {"int_id": 3143, "ref_id": "Dunajska cesta 361", "name": "", "geometry": {"type": "Point", "coordinates": [14.530066, 46.102434]}}, {"int_id": 3144, "ref_id": "Dunajska cesta 361", "name": "", "geometry": {"type": "Point", "coordinates": [14.530066, 46.102434]}}, {"int_id": 3145, "ref_id": "Fu\u017eine 43", "name": "", "geometry": {"type": "Point", "coordinates": [14.564056, 46.054862]}}, {"int_id": 3146, "ref_id": "Gosposvedska 11", "name": "", "geometry": {"type": "Point", "coordinates": [14.502031, 46.055713]}}, {"int_id": 3147, "ref_id": "Gradnikove brigade 6", "name": "", "geometry": {"type": "Point", "coordinates": [14.545711, 46.071527]}}, {"int_id": 3148, "ref_id": "Celov\u0161ka c 25", "name": "", "geometry": {"type": "Point", "coordinates": [14.495606, 46.059936]}}, {"int_id": 3149, "ref_id": "Gregor\u010di\u010deva 11", "name": "", "geometry": {"type": "Point", "coordinates": [14.500196, 46.048268]}}, {"int_id": 3150, "ref_id": "Jak\u010deva 18", "name": "", "geometry": {"type": "Point", "coordinates": [14.545571, 46.05067]}}, {"int_id": 3151, "ref_id": "Jamova cesta 15", "name": "", "geometry": {"type": "Point", "coordinates": [14.492495, 46.043996]}}, {"int_id": 3152, "ref_id": "Jana Husa 3", "name": "", "geometry": {"type": "Point", "coordinates": [14.532522, 46.053425]}}, {"int_id": 3153, "ref_id": "Jar\u0161ka 36", "name": "", "geometry": {"type": "Point", "coordinates": [14.538856, 46.073488]}}, {"int_id": 3154, "ref_id": " BTC \u0160martinska 152", "name": "", "geometry": {"type": "Point", "coordinates": [14.546139, 46.068218]}}, {"int_id": 3155, "ref_id": "Kolodvorska 12", "name": "", "geometry": {"type": "Point", "coordinates": [14.509985, 46.056282]}}, {"int_id": 3156, "ref_id": "Kongresni trg 1", "name": "", "geometry": {"type": "Point", "coordinates": [14.503546, 46.050802]}}, {"int_id": 3157, "ref_id": "Kongresni trg 1", "name": "", "geometry": {"type": "Point", "coordinates": [14.503546, 46.050802]}}, {"int_id": 3158, "ref_id": "Kotnikova 5", "name": "", "geometry": {"type": "Point", "coordinates": [14.512525, 46.054034]}}, {"int_id": 3159, "ref_id": "Krivec 5", "name": "", "geometry": {"type": "Point", "coordinates": [14.454068, 46.078173]}}, {"int_id": 3160, "ref_id": "Kr\u017ei\u0161nikova 10, Medvode", "name": "", "geometry": {"type": "Point", "coordinates": [14.410549, 46.14288]}}, {"int_id": 3161, "ref_id": "Langusova 22", "name": "", "geometry": {"type": "Point", "coordinates": [14.4934, 46.043847]}}, {"int_id": 3162, "ref_id": "Ledarska ulica 50", "name": "", "geometry": {"type": "Point", "coordinates": [14.466841, 46.072834]}}, {"int_id": 3163, "ref_id": "Levstikov trg 4", "name": "", "geometry": {"type": "Point", "coordinates": [14.506276, 46.046018]}}, {"int_id": 3164, "ref_id": "Linhartova 51", "name": "", "geometry": {"type": "Point", "coordinates": [14.524112, 46.066707]}}, {"int_id": 3165, "ref_id": "Linhartova cesta 9", "name": "", "geometry": {"type": "Point", "coordinates": [14.510029, 46.06447]}}, {"int_id": 3166, "ref_id": "Litijska 38 ", "name": "", "geometry": {"type": "Point", "coordinates": [14.545431, 46.047331]}}, {"int_id": 3167, "ref_id": "Litijska cesta 38", "name": "", "geometry": {"type": "Point", "coordinates": [14.545431, 46.047331]}}, {"int_id": 3168, "ref_id": "Litostrojska cesta 3", "name": "", "geometry": {"type": "Point", "coordinates": [14.487105, 46.073849]}}, {"int_id": 3169, "ref_id": "Luize Pesjakove ulica 9", "name": "", "geometry": {"type": "Point", "coordinates": [14.522984, 46.062563]}}, {"int_id": 3170, "ref_id": "Maroltova ulica 10", "name": "", "geometry": {"type": "Point", "coordinates": [14.517606, 46.080518]}}, {"int_id": 3171, "ref_id": "Miklo\u0161i\u010deva 5", "name": "", "geometry": {"type": "Point", "coordinates": [14.506598, 46.053451]}}, {"int_id": 3172, "ref_id": "Miklo\u0161i\u010deva 11", "name": "", "geometry": {"type": "Point", "coordinates": [14.507467, 46.056064]}}, {"int_id": 3173, "ref_id": "Miklo\u0161i\u010deva 6", "name": "", "geometry": {"type": "Point", "coordinates": [14.506721, 46.052687]}}, {"int_id": 3174, "ref_id": "Nazorjeva ul. 6", "name": "", "geometry": {"type": "Point", "coordinates": [14.505206, 46.052977]}}, {"int_id": 3175, "ref_id": "Njego\u0161eva 6", "name": "", "geometry": {"type": "Point", "coordinates": [14.519269, 46.054243]}}, {"int_id": 3176, "ref_id": "Nove Fu\u017eine 33", "name": "", "geometry": {"type": "Point", "coordinates": [14.558809, 46.054932]}}, {"int_id": 3177, "ref_id": "Nove Fu\u017eine 47", "name": "", "geometry": {"type": "Point", "coordinates": [14.565337, 46.054714]}}, {"int_id": 3178, "ref_id": "Papirni\u0161ki trg 2", "name": "", "geometry": {"type": "Point", "coordinates": [14.591587, 46.050915]}}, {"int_id": 3179, "ref_id": "Poga\u010darjev trg ", "name": "", "geometry": {"type": "Point", "coordinates": [14.50759, 46.050873]}}, {"int_id": 3180, "ref_id": "Poljanska 20", "name": "", "geometry": {"type": "Point", "coordinates": [14.515688, 46.049954]}}, {"int_id": 3181, "ref_id": "Poljanski nasip 30", "name": "", "geometry": {"type": "Point", "coordinates": [14.514647, 46.050678]}}, {"int_id": 3182, "ref_id": "Pot na Rakovo Jel\u0161o 7", "name": "", "geometry": {"type": "Point", "coordinates": [14.502215612515348, 46.03326983876846]}}, {"int_id": 3183, "ref_id": "Pra\u017eakova ulica 3", "name": "", "geometry": {"type": "Point", "coordinates": [14.506683, 46.056961]}}, {"int_id": 3184, "ref_id": "Pre\u0161ernov trg ", "name": "", "geometry": {"type": "Point", "coordinates": [14.505492, 46.051404]}}, {"int_id": 3185, "ref_id": "Pre\u0161ernov trg", "name": "", "geometry": {"type": "Point", "coordinates": [14.505492, 46.051404]}}, {"int_id": 3186, "ref_id": "Prijateljeva ulica 7", "name": "", "geometry": {"type": "Point", "coordinates": [14.511125, 46.042709]}}, {"int_id": 3187, "ref_id": "Pru\u0161nikova 22", "name": "", "geometry": {"type": "Point", "coordinates": [14.471306, 46.092704]}}, {"int_id": 3188, "ref_id": "Pru\u0161nikova cesta 2", "name": "", "geometry": {"type": "Point", "coordinates": [14.472533, 46.090429]}}, {"int_id": 3189, "ref_id": "Resljeva cesta 14", "name": "", "geometry": {"type": "Point", "coordinates": [14.511049, 46.054334]}}, {"int_id": 3190, "ref_id": "Riharjeva ul. 31", "name": "", "geometry": {"type": "Point", "coordinates": [14.500031, 46.039269]}}, {"int_id": 3191, "ref_id": "Riharjeva ulica 26", "name": "", "geometry": {"type": "Point", "coordinates": [14.499152, 46.039392]}}, {"int_id": 3192, "ref_id": "Rimska cesta 14", "name": "", "geometry": {"type": "Point", "coordinates": [14.500008, 46.047646]}}, {"int_id": 3193, "ref_id": "STIC Krekov trg 10", "name": "", "geometry": {"type": "Point", "coordinates": [14.510395, 46.051043]}}, {"int_id": 3194, "ref_id": "Savska 10", "name": "", "geometry": {"type": "Point", "coordinates": [14.52589, 46.06433]}}, {"int_id": 3195, "ref_id": "Tom\u0161i\u010deva 4 ", "name": "", "geometry": {"type": "Point", "coordinates": [14.502605, 46.052003]}}, {"int_id": 3196, "ref_id": "Slovenska 29", "name": "", "geometry": {"type": "Point", "coordinates": [14.502841, 46.051626]}}, {"int_id": 3197, "ref_id": "Slovenska 58", "name": "", "geometry": {"type": "Point", "coordinates": [14.505845, 46.056696]}}, {"int_id": 3198, "ref_id": "Slovenska c. 11", "name": "", "geometry": {"type": "Point", "coordinates": [14.501384, 46.048381]}}, {"int_id": 3199, "ref_id": "Slovenska cesta 51", "name": "", "geometry": {"type": "Point", "coordinates": [14.504731, 46.055522]}}, {"int_id": 3200, "ref_id": "Slovenska cesta 32", "name": "", "geometry": {"type": "Point", "coordinates": [14.50351, 46.051872]}}, {"int_id": 3201, "ref_id": "Stari trg 2", "name": "", "geometry": {"type": "Point", "coordinates": [14.506101, 46.048293]}}, {"int_id": 3202, "ref_id": "Stegne 25", "name": "", "geometry": {"type": "Point", "coordinates": [14.481952, 46.086895]}}, {"int_id": 3203, "ref_id": "Studenec 32", "name": "", "geometry": {"type": "Point", "coordinates": [14.574145, 46.057168]}}, {"int_id": 3204, "ref_id": "TIC Stritarjeva 7", "name": "", "geometry": {"type": "Point", "coordinates": [14.506482, 46.050499]}}, {"int_id": 3205, "ref_id": "TIC Trg OF 6", "name": "", "geometry": {"type": "Point", "coordinates": [14.510282, 46.058016]}}, {"int_id": 3206, "ref_id": "Tav\u010darjeva 9", "name": "", "geometry": {"type": "Point", "coordinates": [14.506766, 46.054865]}}, {"int_id": 3207, "ref_id": "Toma\u010devo 12", "name": "", "geometry": {"type": "Point", "coordinates": [14.536047, 46.080108]}}, {"int_id": 3208, "ref_id": "Tom\u0161i\u010deva ulica 1", "name": "", "geometry": {"type": "Point", "coordinates": [14.502814, 46.051743]}}, {"int_id": 3209, "ref_id": "Tovarni\u0161ka 38", "name": "", "geometry": {"type": "Point", "coordinates": [14.531478, 46.06079]}}, {"int_id": 3210, "ref_id": "Trdinova ulica 3", "name": "", "geometry": {"type": "Point", "coordinates": [14.505814, 46.055904]}}, {"int_id": 3211, "ref_id": "Trg Ajdov\u0161\u010dina 1", "name": "", "geometry": {"type": "Point", "coordinates": [14.504607, 46.053816]}}, {"int_id": 3212, "ref_id": "Trg OF 10", "name": "", "geometry": {"type": "Point", "coordinates": [14.512876, 46.058486]}}, {"int_id": 3213, "ref_id": "Trg OF 4", "name": "", "geometry": {"type": "Point", "coordinates": [14.509548, 46.057743]}}, {"int_id": 3214, "ref_id": "Trg OF 5", "name": "", "geometry": {"type": "Point", "coordinates": [14.508796, 46.058009]}}, {"int_id": 3215, "ref_id": "Trg OF 6", "name": "", "geometry": {"type": "Point", "coordinates": [14.510282, 46.058016]}}, {"int_id": 3216, "ref_id": "Trg republike 1", "name": "", "geometry": {"type": "Point", "coordinates": [14.501301, 46.050378]}}, {"int_id": 3217, "ref_id": "Trubarjeva 1", "name": "", "geometry": {"type": "Point", "coordinates": [14.506548, 46.051822]}}, {"int_id": 3218, "ref_id": "Tr\u017ea\u0161ka 37", "name": "", "geometry": {"type": "Point", "coordinates": [14.486147, 46.044301]}}, {"int_id": 3219, "ref_id": "Tr\u017ea\u0161ka cesta 68/a", "name": "", "geometry": {"type": "Point", "coordinates": [14.481128, 46.043558]}}, {"int_id": 3220, "ref_id": "BTC \u0160martinska 152", "name": "", "geometry": {"type": "Point", "coordinates": [14.546139, 46.068218]}}, {"int_id": 3221, "ref_id": "Ulica bratov U\u010dakar 52", "name": "", "geometry": {"type": "Point", "coordinates": [14.473356, 46.071569]}}, {"int_id": 3222, "ref_id": "Vi\u0161ka c. 45", "name": "", "geometry": {"type": "Point", "coordinates": [14.468507, 46.041944]}}, {"int_id": 3223, "ref_id": "Vodnikov trg 5", "name": "", "geometry": {"type": "Point", "coordinates": [14.509146, 46.050259]}}, {"int_id": 3224, "ref_id": "Adami\u010deva 6", "name": "", "geometry": {"type": "Point", "coordinates": [14.478196, 46.072365]}}, {"int_id": 3225, "ref_id": "Vodnikova cesta 118", "name": "", "geometry": {"type": "Point", "coordinates": [14.480987, 46.070007]}}, {"int_id": 3226, "ref_id": "Vodnikova cesta 224", "name": "", "geometry": {"type": "Point", "coordinates": [14.472831, 46.07916]}}, {"int_id": 3227, "ref_id": "Vodnikova cesta 235", "name": "", "geometry": {"type": "Point", "coordinates": [14.472423, 46.078618]}}, {"int_id": 3228, "ref_id": "Vodnikova cesta 62", "name": "", "geometry": {"type": "Point", "coordinates": [14.487045, 46.067438]}}, {"int_id": 3229, "ref_id": "Vodovodna 93", "name": "", "geometry": {"type": "Point", "coordinates": [14.503898, 46.07363]}}, {"int_id": 3230, "ref_id": "Vojkova 93", "name": "", "geometry": {"type": "Point", "coordinates": [14.519347, 46.081394]}}, {"int_id": 3231, "ref_id": "Vojkova cesta 48", "name": "", "geometry": {"type": "Point", "coordinates": [14.51658, 46.06771]}}, {"int_id": 3232, "ref_id": "Zadobrov\u0161ka cesta 14", "name": "", "geometry": {"type": "Point", "coordinates": [14.584363, 46.056054]}}, {"int_id": 3233, "ref_id": "Zadobrov\u0161ka cesta 29", "name": "", "geometry": {"type": "Point", "coordinates": [14.583017, 46.063283]}}, {"int_id": 3234, "ref_id": "Zalo\u0161ka 48", "name": "", "geometry": {"type": "Point", "coordinates": [14.534339, 46.055565]}}, {"int_id": 3235, "ref_id": "Zalo\u0161ka 55", "name": "", "geometry": {"type": "Point", "coordinates": [14.534411, 46.056294]}}, {"int_id": 3236, "ref_id": "Zalo\u0161ka 62", "name": "", "geometry": {"type": "Point", "coordinates": [14.539908, 46.055722]}}, {"int_id": 3237, "ref_id": "Proletarska 2 ", "name": "", "geometry": {"type": "Point", "coordinates": [14.53401, 46.056283]}}, {"int_id": 3238, "ref_id": "Zalo\u0161ka 168", "name": "", "geometry": {"type": "Point", "coordinates": [14.576891, 46.054677]}}, {"int_id": 3239, "ref_id": "Zalo\u0161ka 2", "name": "", "geometry": {"type": "Point", "coordinates": [14.520785, 46.052216]}}, {"int_id": 3240, "ref_id": "Zalo\u0161ka 2", "name": "", "geometry": {"type": "Point", "coordinates": [14.520785, 46.052216]}}, {"int_id": 3241, "ref_id": "Zalo\u0161ka 7", "name": "", "geometry": {"type": "Point", "coordinates": [14.521776, 46.052733]}}, {"int_id": 3242, "ref_id": "Zalo\u0161ka c. 275 A", "name": "", "geometry": {"type": "Point", "coordinates": [14.615475, 46.061039]}}, {"int_id": 3243, "ref_id": "Zalo\u0161ka cesta 275/a", "name": "", "geometry": {"type": "Point", "coordinates": [14.615475, 46.061039]}}, {"int_id": 3244, "ref_id": "Zalo\u0161ka cesta 57", "name": "", "geometry": {"type": "Point", "coordinates": [14.534721, 46.056313]}}, {"int_id": 3245, "ref_id": "Zalo\u0161ka cesta 7", "name": "", "geometry": {"type": "Point", "coordinates": [14.521776, 46.052733]}}, {"int_id": 3246, "ref_id": "Adami\u010d Lundrovo nabre\u017eje 6", "name": "", "geometry": {"type": "Point", "coordinates": [14.51035, 46.051452]}}, {"int_id": 3247, "ref_id": "C. 27. aprila 31", "name": "", "geometry": {"type": "Point", "coordinates": [14.487695, 46.051614]}}, {"int_id": 3248, "ref_id": "\u0160landrove brigade 24", "name": "", "geometry": {"type": "Point", "coordinates": [14.529196, 46.098548]}}, {"int_id": 3249, "ref_id": "\u0160martinska cesta 152", "name": "", "geometry": {"type": "Point", "coordinates": [14.546139, 46.068218]}}, {"int_id": 3250, "ref_id": "\u0160martinska cesta 152", "name": "", "geometry": {"type": "Point", "coordinates": [14.546139, 46.068218]}}, {"int_id": 3251, "ref_id": "\u0160tefanova 5", "name": "", "geometry": {"type": "Point", "coordinates": [14.502799, 46.053354]}}, {"int_id": 3252, "ref_id": "\u0160tihova ulica 24", "name": "", "geometry": {"type": "Point", "coordinates": [14.514848, 46.063267]}}, {"int_id": 3253, "ref_id": "\u0160tula 23", "name": "", "geometry": {"type": "Point", "coordinates": [14.471106, 46.096005]}}, {"int_id": 3254, "ref_id": "\u0160ubi\u010deva 4", "name": "", "geometry": {"type": "Point", "coordinates": [14.50115, 46.051385]}}, {"int_id": 3255, "ref_id": "Trg OF 6", "name": "", "geometry": {"type": "Point", "coordinates": [14.510282, 46.058016]}}, {"int_id": 3256, "ref_id": "\u010copova cesta 11", "name": "", "geometry": {"type": "Point", "coordinates": [14.503771848375573, 46.052137472554854]}}, {"int_id": 3257, "ref_id": "Ul. Gradnikove brigade 10", "name": "", "geometry": {"type": "Point", "coordinates": [14.544799, 46.072378]}}, {"int_id": 3258, "ref_id": "Slovenska 56", "name": "", "geometry": {"type": "Point", "coordinates": [14.505731, 46.056462]}}, {"int_id": 3259, "ref_id": "Vodovodna 93", "name": "", "geometry": {"type": "Point", "coordinates": [14.503898, 46.07363]}}, {"int_id": 3260, "ref_id": "804192", "name": "Pod Kamno Gorico", "geometry": {"type": "Point", "coordinates": [14.4564863949527, 46.0738462959132]}}, {"int_id": 3261, "ref_id": "804191", "name": "Pod Kamno Gorico", "geometry": {"type": "Point", "coordinates": [14.4558888690389, 46.0737110332312]}}, {"int_id": 3263, "ref_id": "404162", "name": "O.\u0161. Sostro", "geometry": {"type": "Point", "coordinates": [14.5987534686191, 46.0352306825213]}}, {"int_id": 3285, "ref_id": "202071", "name": "So\u010da", "geometry": {"type": "Point", "coordinates": [14.5257186889648, 46.0667991638184]}}, {"int_id": 3307, "ref_id": "201011", "name": "\u017dELEZNA", "geometry": {"type": "Point", "coordinates": [14.5134899323093, 46.0611179589993]}}, {"int_id": 3309, "ref_id": "600032", "name": "Dalmatinova", "geometry": {"type": "Point", "coordinates": [14.5052983679243, 46.0541199976755]}}, {"int_id": 3310, "ref_id": "501022", "name": "Zmajski most", "geometry": {"type": "Point", "coordinates": [14.5102044360555, 46.0522134847809]}}, {"int_id": 3311, "ref_id": "501021", "name": "Zmajski most", "geometry": {"type": "Point", "coordinates": [14.5107176337077, 46.0515774565414]}}, {"int_id": 3312, "ref_id": "501032", "name": "Lutkovno gl.", "geometry": {"type": "Point", "coordinates": [14.5104436548026, 46.0502050925444]}}, {"int_id": 3313, "ref_id": "501031", "name": "Lutkovno gl.", "geometry": {"type": "Point", "coordinates": [14.5107649777746, 46.0505445674127]}}, {"int_id": 3314, "ref_id": "502021", "name": "Ro\u0161ka", "geometry": {"type": "Point", "coordinates": [14.519437789917, 46.048454284668]}}, {"int_id": 3315, "ref_id": "502031", "name": "Streli\u0161ka", "geometry": {"type": "Point", "coordinates": [14.5169512539615, 46.0446072780575]}}, {"int_id": 3316, "ref_id": "502032", "name": "Streli\u0161ka", "geometry": {"type": "Point", "coordinates": [14.5183204559035, 46.0449877191722]}}, {"int_id": 3317, "ref_id": "503014", "name": "Orlova", "geometry": {"type": "Point", "coordinates": [14.5164664707207, 46.0384886167281]}}, {"int_id": 3318, "ref_id": "603122", "name": "I\u017eanska", "geometry": {"type": "Point", "coordinates": [14.5127596969969, 46.0349717611473]}}, {"int_id": 3319, "ref_id": "603121", "name": "I\u017eanska", "geometry": {"type": "Point", "coordinates": [14.5130939713252, 46.0353721580662]}}, {"int_id": 3322, "ref_id": "503052", "name": "Mihov \u0161tradon", "geometry": {"type": "Point", "coordinates": [14.521880358945, 46.0290365700358]}}, {"int_id": 3323, "ref_id": "503051", "name": "Mihov \u0161tradon", "geometry": {"type": "Point", "coordinates": [14.521560938484, 46.0293798924376]}}, {"int_id": 3324, "ref_id": "504041", "name": "Jur\u010dkova", "geometry": {"type": "Point", "coordinates": [14.5276550152748, 46.0265681277864]}}, {"int_id": 3325, "ref_id": "504042", "name": "Jur\u010dkova", "geometry": {"type": "Point", "coordinates": [14.5287127283254, 46.0258763313666]}}, {"int_id": 3326, "ref_id": "504052", "name": "NS Rudnik", "geometry": {"type": "Point", "coordinates": [14.5347886575055, 46.0203070759981]}}, {"int_id": 3327, "ref_id": "504051", "name": "NS Rudnik", "geometry": {"type": "Point", "coordinates": [14.5351957555686, 46.0201996502363]}}, {"int_id": 3328, "ref_id": "504061", "name": "NS RUDNIK", "geometry": {"type": "Point", "coordinates": [14.535336, 46.018421]}}, {"int_id": 3329, "ref_id": "704024", "name": "Brdo", "geometry": {"type": "Point", "coordinates": [14.4538894322047, 46.0478184633981]}}, {"int_id": 3330, "ref_id": "600022", "name": "Ajdov\u0161\u010dina", "geometry": {"type": "Point", "coordinates": [14.5039868517979, 46.0535390082324]}}, {"int_id": 3331, "ref_id": "704041", "name": "BOKALCE", "geometry": {"type": "Point", "coordinates": [14.448009, 46.051926]}}, {"int_id": 3332, "ref_id": "703131", "name": "\u017dIVALSKI VRT", "geometry": {"type": "Point", "coordinates": [14.4702849043708, 46.0535823879398]}}, {"int_id": 3334, "ref_id": "502014", "name": "Ambro\u017eev trg", "geometry": {"type": "Point", "coordinates": [14.5168919025372, 46.0495752574493]}}, {"int_id": 3335, "ref_id": "502013", "name": "Ambro\u017eev trg", "geometry": {"type": "Point", "coordinates": [14.5172493587762, 46.0495728420941]}}, {"int_id": 3336, "ref_id": "100012", "name": "Navje", "geometry": {"type": "Point", "coordinates": [14.5093692228477, 46.0596030795498]}}, {"int_id": 3340, "ref_id": "701012", "name": "", "geometry": {"type": "Point", "coordinates": [14.4979228973389, 46.052978515625]}}, {"int_id": 3341, "ref_id": "701011", "name": "", "geometry": {"type": "Point", "coordinates": [14.4983015012048, 46.0529708862305]}}, {"int_id": 3346, "ref_id": "704012", "name": "Dolgi most P+R", "geometry": {"type": "Point", "coordinates": [14.462638433127, 46.0360554290211]}}, {"int_id": 3347, "ref_id": "602091", "name": "Ziherlova", "geometry": {"type": "Point", "coordinates": [14.4995674875417, 46.0412162809368]}}, {"int_id": 3352, "ref_id": "704052", "name": "Dolgi most Rotar", "geometry": {"type": "Point", "coordinates": [14.4522756714304, 46.03369140625]}}, {"int_id": 3354, "ref_id": "704062", "name": "Na Gmajnici", "geometry": {"type": "Point", "coordinates": [14.439967, 46.029677]}}, {"int_id": 3356, "ref_id": "704072", "name": "Radna", "geometry": {"type": "Point", "coordinates": [14.4215431213379, 46.0244979858398]}}, {"int_id": 3357, "ref_id": "704081", "name": "Pri Poku", "geometry": {"type": "Point", "coordinates": [14.4178838729858, 46.023983001709]}}, {"int_id": 3358, "ref_id": "744012", "name": "\u0160olska", "geometry": {"type": "Point", "coordinates": [14.414541, 46.016627]}}, {"int_id": 3360, "ref_id": "744021", "name": "VNANJE GORICE", "geometry": {"type": "Point", "coordinates": [14.41296, 46.01182]}}, {"int_id": 3362, "ref_id": "404101", "name": "Kro\u017ena pot", "geometry": {"type": "Point", "coordinates": [14.5564451217651, 46.0410499572754]}}, {"int_id": 3364, "ref_id": "404121", "name": "BIZOVIK", "geometry": {"type": "Point", "coordinates": [14.5719944841569, 46.0378720155047]}}, {"int_id": 3365, "ref_id": "404111", "name": "Hru\u0161evska", "geometry": {"type": "Point", "coordinates": [14.5643275095289, 46.0397776852003]}}, {"int_id": 3367, "ref_id": "403071", "name": "Bile\u010danska", "geometry": {"type": "Point", "coordinates": [14.5442139875665, 46.0459449524855]}}, {"int_id": 3369, "ref_id": "403025", "name": "KODELJEVO", "geometry": {"type": "Point", "coordinates": [14.5394530435319, 46.0518431482064]}}, {"int_id": 3370, "ref_id": "104054", "name": "Sava", "geometry": {"type": "Point", "coordinates": [14.5212649454909, 46.1005768485914]}}, {"int_id": 3371, "ref_id": "104201", "name": "Zg. Gameljne", "geometry": {"type": "Point", "coordinates": [14.4867167675502, 46.1258788350425]}}, {"int_id": 3372, "ref_id": "403072", "name": "Bile\u010danska", "geometry": {"type": "Point", "coordinates": [14.5442050044137, 46.0457009959408]}}, {"int_id": 3373, "ref_id": "404102", "name": "Kro\u017ena pot", "geometry": {"type": "Point", "coordinates": [14.5565439364464, 46.0407058849986]}}, {"int_id": 3374, "ref_id": "404112", "name": "Hru\u0161evska", "geometry": {"type": "Point", "coordinates": [14.5647766671709, 46.039508677188]}}, {"int_id": 3377, "ref_id": "704061", "name": "Na Gmajnici", "geometry": {"type": "Point", "coordinates": [14.439165, 46.029186]}}, {"int_id": 3378, "ref_id": "704051", "name": "Dolgi most Rotar", "geometry": {"type": "Point", "coordinates": [14.4529943236577, 46.0337101762823]}}, {"int_id": 3379, "ref_id": "744011", "name": "\u0160olska", "geometry": {"type": "Point", "coordinates": [14.415278, 46.017984]}}, {"int_id": 3380, "ref_id": "404122", "name": "BIZOVIK", "geometry": {"type": "Point", "coordinates": [14.5709704047329, 46.0373871576994]}}, {"int_id": 3382, "ref_id": "203201", "name": "Clevelandska", "geometry": {"type": "Point", "coordinates": [14.5349533032599, 46.0777082936937]}}, {"int_id": 3395, "ref_id": "614012", "name": "Ple\u010dnikova cerkev", "geometry": {"type": "Point", "coordinates": [14.505982635347, 46.0122268457141]}}, {"int_id": 3396, "ref_id": "614011", "name": "Ple\u010dnikova cerkev", "geometry": {"type": "Point", "coordinates": [14.5064946750589, 46.0118200011569]}}, {"int_id": 3397, "ref_id": "614021", "name": "Berglezov \u0160tradon", "geometry": {"type": "Point", "coordinates": [14.5011496991185, 46.0098295489835]}}, {"int_id": 3398, "ref_id": "614022", "name": "Berglezov \u0160tradon", "geometry": {"type": "Point", "coordinates": [14.5007005414765, 46.0098045113901]}}, {"int_id": 3399, "ref_id": "614032", "name": "Dornig", "geometry": {"type": "Point", "coordinates": [14.4946369133086, 46.0073632912578]}}, {"int_id": 3400, "ref_id": "614031", "name": "Dornig", "geometry": {"type": "Point", "coordinates": [14.4951040372563, 46.0073695509353]}}, {"int_id": 3401, "ref_id": "614041", "name": "Capuder", "geometry": {"type": "Point", "coordinates": [14.4897231287044, 46.005294428798]}}, {"int_id": 3402, "ref_id": "614042", "name": "Capuder", "geometry": {"type": "Point", "coordinates": [14.4903609325562, 46.0059266764209]}}, {"int_id": 3403, "ref_id": "614052", "name": "Zidarjevec", "geometry": {"type": "Point", "coordinates": [14.4815843922303, 46.0024993063704]}}, {"int_id": 3404, "ref_id": "614051", "name": "Zidarjevec", "geometry": {"type": "Point", "coordinates": [14.4820604993309, 46.0025055666019]}},